{"fuente":"GTFS NAP transportes.gob.es - Transporte urbano de Zaragoza","version_feed":"20260623_AUZSA_Y_TRANVIA","valido_hasta":"20261005","postes":{"2":{"nombre":"Agustín Príncipe N. º 2","lat":41.653194,"lon":-0.923603,"lineas":["21","53"]},"4":{"nombre":"Alfred Nobel / Monasterio","lat":41.651913,"lon":-0.921247,"lineas":["21","53"]},"6":{"nombre":"Alfred Nobel / Vía Hispanidad","lat":41.651747,"lon":-0.920206,"lineas":["21","53"]},"7":{"nombre":"León Moyano / Alhama De Aragón","lat":41.624355,"lon":-0.873925,"lineas":["23","31","N5"]},"8":{"nombre":"Miguel ángel Blanco N.º 53","lat":41.639605,"lon":-0.927992,"lineas":["36","38"]},"9":{"nombre":"Andrés Vicente N.º 25","lat":41.648506,"lon":-0.913626,"lineas":["33"]},"10":{"nombre":"Miguel Labordeta","lat":41.652482,"lon":-0.916993,"lineas":["32"]},"14":{"nombre":"Antonio Leyva N.º 33","lat":41.651722,"lon":-0.923658,"lineas":["21","53","N3"]},"15":{"nombre":"Camino De Juslibol","lat":41.673903,"lon":-0.874723,"lineas":["36"]},"17":{"nombre":"Arzobispo Morcillo N.º 32","lat":41.637166,"lon":-0.891154,"lineas":["Ci1"]},"20":{"nombre":"Asalto N.º 53","lat":41.649254,"lon":-0.87204,"lineas":["30"]},"22":{"nombre":"Asín Y Palacios N.º 5","lat":41.638812,"lon":-0.902919,"lineas":["42"]},"24":{"nombre":"Vía Hispanidad / Asín Y Palacios","lat":41.633509,"lon":-0.907536,"lineas":["42"]},"25":{"nombre":"Asín Y Palacios N.º 8","lat":41.638124,"lon":-0.903544,"lineas":["35","53"]},"26":{"nombre":"Autonomía De Aragón / Campo De Fútbol","lat":41.605407,"lon":-0.825109,"lineas":["25","N6"]},"28":{"nombre":"Av. Academia General Militar N.º 2","lat":41.678351,"lon":-0.870965,"lineas":["29","35","N7"]},"29":{"nombre":"Av. Academia General Militar N.º 14","lat":41.681477,"lon":-0.870911,"lineas":["29","35","N7"]},"31":{"nombre":"Av. Academia General Militar N.º 54","lat":41.68394,"lon":-0.87082,"lineas":["29","35","N7"]},"32":{"nombre":"Av. Academia General Militar / Cristo Rey","lat":41.687898,"lon":-0.87067,"lineas":["29","35","N7"]},"33":{"nombre":"Av. Academia General Militar N.º 37","lat":41.681989,"lon":-0.871141,"lineas":["29","35","N2"]},"34":{"nombre":"Av. Academia General Militar / Maz","lat":41.686067,"lon":-0.87075,"lineas":["29","35","N7"]},"36":{"nombre":"Av. Academia General Militar / Maz (Dir. Centro)","lat":41.684993,"lon":-0.871077,"lineas":["29","35","N2"]},"38":{"nombre":"Av. Alcalde Caballero N.º 50","lat":41.669529,"lon":-0.860348,"lineas":["44"]},"39":{"nombre":"Av. Alcalde Caballero / Claudio Tolomeo","lat":41.676833,"lon":-0.868266,"lineas":["44"]},"40":{"nombre":"Av. Alcalde Caballero / Camino De Los Molinos","lat":41.676648,"lon":-0.8682,"lineas":["44","N7"]},"41":{"nombre":"Av. Alcalde Caballero / Gasolinera","lat":41.672718,"lon":-0.861943,"lineas":["44"]},"42":{"nombre":"Av. De La Almozara N.º 22","lat":41.660868,"lon":-0.895512,"lineas":["34","42","Ci4","N2"]},"43":{"nombre":"Av. De La Almozara N.º 50","lat":41.663146,"lon":-0.898274,"lineas":["34","42","Ci4","N2"]},"44":{"nombre":"Av.De América N.º 27","lat":41.631124,"lon":-0.885451,"lineas":["31","33","34","39","42","C1","C4","N5"]},"46":{"nombre":"Av. De América N.º 69","lat":41.629491,"lon":-0.885897,"lineas":["33","34","39"]},"47":{"nombre":"Av. De América N.º 83","lat":41.628633,"lon":-0.886162,"lineas":["31","42","C1","C4","N5"]},"48":{"nombre":"Av. De América N.º 107","lat":41.62745,"lon":-0.886493,"lineas":["34"]},"49":{"nombre":"Anselmo Clavé N.º 21","lat":41.651734,"lon":-0.893384,"lineas":["22","31"]},"50":{"nombre":"Anselmo Clavé N.º 45","lat":41.649637,"lon":-0.893654,"lineas":["22","31"]},"51":{"nombre":"Anselmo Clavé / Correos","lat":41.650873,"lon":-0.893804,"lineas":["22","31"]},"52":{"nombre":"Anselmo Clavé / Santander","lat":41.649183,"lon":-0.893869,"lineas":["22","31"]},"54":{"nombre":"Av. De Cataluña N.º 17","lat":41.65983,"lon":-0.870403,"lineas":["28","35","39","50","N1","N7"]},"55":{"nombre":"Av. De Cataluña N.º 51","lat":41.661447,"lon":-0.866803,"lineas":["21","28","32","39","50","N1","N7"]},"56":{"nombre":"Av. De Cataluña N.º 74 / Plaza Mozart","lat":41.661719,"lon":-0.865888,"lineas":["21","28","32","39","50","N1"]},"61":{"nombre":"Av. De Cataluña N.º 103","lat":41.663929,"lon":-0.860924,"lineas":["28","32","44","60","N1","N7"]},"63":{"nombre":"Av. De Cataluña N.º 115","lat":41.664538,"lon":-0.859441,"lineas":["28","32","44","60","N1","N7"]},"66":{"nombre":"Av. De Cataluña N.º 126","lat":41.663827,"lon":-0.860838,"lineas":["28","32","50","60"]},"68":{"nombre":"Av. De Cataluña N.º 159","lat":41.665677,"lon":-0.856793,"lineas":["28","32","60","N1","N7"]},"69":{"nombre":"Av. De Cataluña N.º 165","lat":41.666635,"lon":-0.854467,"lineas":["28","32","60","N1","N7"]},"70":{"nombre":"Av. De Cataluña N.º 188","lat":41.665556,"lon":-0.856625,"lineas":["28","32","60","N1","N7"]},"72":{"nombre":"Av. De Cataluña N.º 226","lat":41.666689,"lon":-0.853939,"lineas":["28","32","60","N1","N7"]},"73":{"nombre":"Av. De Cataluña N.º 253","lat":41.668967,"lon":-0.849127,"lineas":["28","32","60","N1","N7"]},"75":{"nombre":"Av. De Cataluña N.º 290","lat":41.669218,"lon":-0.847898,"lineas":["28","32","60","N1","N7"]},"78":{"nombre":"Av. De Cataluña / Balcón De San Lázaro","lat":41.658398,"lon":-0.873904,"lineas":["28","35","39","50","Ci4","N1","N7"]},"80":{"nombre":"Av. De Cataluña / Puente Del Gállego","lat":41.670642,"lon":-0.844499,"lineas":["28","32","60","N1","N7"]},"82":{"nombre":"Av. César Augusto N.º 4 / Puerta Del Carmen","lat":41.65012,"lon":-0.887,"lineas":["32","52"]},"93":{"nombre":"Av. César Augusto / Morería","lat":41.652865,"lon":-0.884409,"lineas":["32","33","34","52","N2","N3","N7"]},"96":{"nombre":"Av. Cesáreo Alierta N.º 11","lat":41.645493,"lon":-0.877697,"lineas":["25","51","N6"]},"97":{"nombre":"Av. Cesáreo Alierta N.º 27","lat":41.643316,"lon":-0.875987,"lineas":["25","51","N6"]},"98":{"nombre":"Av. Cesáreo Alierta N.º 55","lat":41.641006,"lon":-0.874216,"lineas":["25","51","N6"]},"100":{"nombre":"Av. Cesáreo Alierta N.º 117","lat":41.637455,"lon":-0.867444,"lineas":["25","51","N6"]},"103":{"nombre":"Ciudad Escolar Pignatelli","lat":41.643783,"lon":-0.922254,"lineas":["38"]},"104":{"nombre":"Av. Cesáreo Alierta N.º 22","lat":41.645434,"lon":-0.878314,"lineas":["25","51","N6"]},"106":{"nombre":"Av. Cesáreo Alierta N.º 44 / Av. De San José","lat":41.640981,"lon":-0.874798,"lineas":["25","51","N6"]},"107":{"nombre":"Av. Cesáreo Alierta N.º 72","lat":41.639506,"lon":-0.872502,"lineas":["25","51"]},"108":{"nombre":"Av. Cesáreo Alierta N.º 94","lat":41.638589,"lon":-0.870534,"lineas":["25","51"]},"109":{"nombre":"Pabellón Príncipe Felipe","lat":41.637194,"lon":-0.868315,"lineas":["51"]},"110":{"nombre":"Av. Cesáreo Alierta / P. Príncipe Felipe","lat":41.635138,"lon":-0.864274,"lineas":["25"]},"111":{"nombre":"Av. De La Ilustración N.º 28","lat":41.63055,"lon":-0.936023,"lineas":["41","55","N4"]},"112":{"nombre":"Av. De La Ilustración N.º 32 / Ibón","lat":41.63143,"lon":-0.939492,"lineas":["41","55","N4"]},"113":{"nombre":"Av. De La Ilustración N.º 21","lat":41.630065,"lon":-0.935912,"lineas":["41","55"]},"114":{"nombre":"Av. De La Ilustración / Depósito","lat":41.627412,"lon":-0.925452,"lineas":["41","55"]},"115":{"nombre":"Av. Ilustración  / Parque Félix De Azara","lat":41.627682,"lon":-0.925537,"lineas":["41","55"]},"116":{"nombre":"Av. De La Ilustración / De La Mesta","lat":41.629992,"lon":-0.941012,"lineas":["41","54"]},"117":{"nombre":"Av. De La Ilustración / Ibón","lat":41.631294,"lon":-0.939187,"lineas":["41","55"]},"118":{"nombre":"Av. De La Ilustración / Iglesia","lat":41.628288,"lon":-0.927903,"lineas":["41","55"]},"119":{"nombre":"Av. De La Ilustración / Supermercado","lat":41.629042,"lon":-0.93155,"lineas":["41","55"]},"120":{"nombre":"Av. De La Ilustración / Iglesia","lat":41.628543,"lon":-0.928029,"lineas":["41","55"]},"121":{"nombre":"Av. De La Ilustración / Centro Comercial","lat":41.629507,"lon":-0.931388,"lineas":["41","55","56","59","N4"]},"122":{"nombre":"Av. De La Jota N.º 16","lat":41.660693,"lon":-0.862019,"lineas":["44"]},"123":{"nombre":"Av. De La Jota N.º 42 / C.S.  La Jota","lat":41.661294,"lon":-0.859203,"lineas":["39","N1"]},"124":{"nombre":"Av. De Los Pirineos / Colegio","lat":41.662818,"lon":-0.881079,"lineas":["29"]},"126":{"nombre":"Av. De Los Pirineos / Tv Aragón","lat":41.661757,"lon":-0.880794,"lineas":["29","N7"]},"130":{"nombre":"Avda. De Los Pirineos (Macanaz)","lat":41.660289,"lon":-0.88032,"lineas":["36"]},"131":{"nombre":"Av. De Los Pirineos / Valle Broto","lat":41.665794,"lon":-0.88076,"lineas":["29"]},"133":{"nombre":"Av. Gómez Laguna N.º 6","lat":41.642948,"lon":-0.906944,"lineas":["22","N4"]},"134":{"nombre":"Av. Gómez Laguna N.º 20","lat":41.641915,"lon":-0.91011,"lineas":["22","41","53"]},"135":{"nombre":"Av. Gómez Laguna N.º 25","lat":41.641602,"lon":-0.910232,"lineas":["22","41"]},"136":{"nombre":"Av. Gómez Laguna N.º 15","lat":41.642346,"lon":-0.907898,"lineas":["22"]},"137":{"nombre":"Av. Gómez Laguna N.º 48","lat":41.640697,"lon":-0.913748,"lineas":["22","41","53"]},"139":{"nombre":"Av. Gómez Laguna N.º 49","lat":41.640568,"lon":-0.913441,"lineas":["22","41","53"]},"140":{"nombre":"Av. Gómez Laguna / Vía Ibérica","lat":41.623279,"lon":-0.913828,"lineas":["N4"]},"141":{"nombre":"Av. Francisco De Goya N.º 2","lat":41.642563,"lon":-0.886837,"lineas":["31"]},"142":{"nombre":"Av. Francisco De Goya N.º 3","lat":41.642395,"lon":-0.886747,"lineas":["31"]},"143":{"nombre":"Av. Francisco De Goya N.º 47 / Estación Cercanías","lat":41.643809,"lon":-0.891463,"lineas":["31"]},"144":{"nombre":"Av. Francisco De Goya N.º 50","lat":41.643968,"lon":-0.890958,"lineas":["31"]},"145":{"nombre":"Av. Francisco De Goya N.º 59","lat":41.645062,"lon":-0.893091,"lineas":["31"]},"146":{"nombre":"Av. Francisco De Goya N.º 66","lat":41.64527,"lon":-0.893005,"lineas":["31"]},"147":{"nombre":"Av. Francisco De Goya N.º 83","lat":41.646728,"lon":-0.89382,"lineas":["31"]},"148":{"nombre":"Av. Francisco De Goya N.º 90","lat":41.646919,"lon":-0.893569,"lineas":["31"]},"149":{"nombre":"Av. Peñaflor N.º 56","lat":41.759175,"lon":-0.7965,"lineas":["28","N7"]},"152":{"nombre":"Av. De Madrid N.º 29 / Aljafería","lat":41.655541,"lon":-0.895993,"lineas":["32","33","36","51"]},"154":{"nombre":"Av. De Madrid N.º 36","lat":41.654176,"lon":-0.901839,"lineas":["21","N3"]},"155":{"nombre":"Av. De Madrid N.º 38","lat":41.654145,"lon":-0.901964,"lineas":["32","33"]},"158":{"nombre":"Av. De Madrid N.º 94 / Plaza Huesca","lat":41.653042,"lon":-0.906341,"lineas":["21"]},"160":{"nombre":"Av. De Madrid N.º 108","lat":41.652655,"lon":-0.907965,"lineas":["32","33","Ci3","N3"]},"161":{"nombre":"Av. De Madrid N.º 117","lat":41.654107,"lon":-0.901717,"lineas":["32","33","N3"]},"162":{"nombre":"Av. De Madrid N.º 119","lat":41.654029,"lon":-0.902044,"lineas":["21"]},"163":{"nombre":"Av. De Madrid N.º 134 / Rioja","lat":41.652229,"lon":-0.909906,"lineas":["21","32","33","Ci3","N3"]},"165":{"nombre":"Av. De Madrid N.º 139","lat":41.653587,"lon":-0.903768,"lineas":["21","32","33","N3"]},"167":{"nombre":"Av. De Madrid N.º 158","lat":41.65155,"lon":-0.913032,"lineas":["21","33","36","N3"]},"169":{"nombre":"Av. De Madrid N.º 170","lat":41.651254,"lon":-0.914349,"lineas":["21","33","36","N3"]},"171":{"nombre":"Av. De Madrid N.º 183","lat":41.652625,"lon":-0.907666,"lineas":["21","32","33","Ci4","N3"]},"173":{"nombre":"Av. De Madrid N.º 215","lat":41.652193,"lon":-0.90956,"lineas":["21","32","33","Ci4","N3"]},"175":{"nombre":"Av. De Madrid N.º 220 / Los Enlaces","lat":41.650657,"lon":-0.917207,"lineas":["21","36","N3"]},"176":{"nombre":"Av. De Madrid N.º 241","lat":41.651614,"lon":-0.912186,"lineas":["21","33","N3"]},"178":{"nombre":"Av. De Madrid N.º 259","lat":41.651188,"lon":-0.914085,"lineas":["21","33","N3"]},"180":{"nombre":"Av. De Madrid N.º 285 / Los Enlaces","lat":41.650541,"lon":-0.91693,"lineas":["21","36","N3"]},"181":{"nombre":"Avenida De Madrid Nº 285 / Supermercado","lat":41.650418,"lon":-0.917001,"lineas":["33"]},"182":{"nombre":"Av. De Navarra N.º 1","lat":41.654598,"lon":-0.901632,"lineas":["36","42","51","52"]},"183":{"nombre":"Av. De Navarra N.º 12","lat":41.6549,"lon":-0.901728,"lineas":["36","51","52"]},"184":{"nombre":"Av. De Navarra N.º 30","lat":41.655208,"lon":-0.904134,"lineas":["36","51","52"]},"185":{"nombre":"Av. De Navarra N.º 33","lat":41.654886,"lon":-0.903997,"lineas":["36","42","51","52"]},"186":{"nombre":"Av. De Navarra N.º 71","lat":41.655373,"lon":-0.907417,"lineas":["36","42","51","52"]},"187":{"nombre":"Av. De Navarra N.º 119","lat":41.656571,"lon":-0.912407,"lineas":["52"]},"188":{"nombre":"Av. De Navarra N.º 183","lat":41.658515,"lon":-0.918846,"lineas":["52"]},"189":{"nombre":"Av. De Navarra / Centro Cívico","lat":41.655574,"lon":-0.906754,"lineas":["36","42","51","52"]},"191":{"nombre":"Av. De Navarra / C.M.E. Inocencio Jiménez","lat":41.65638,"lon":-0.910743,"lineas":["34","51","52","Ci1","Ci3"]},"192":{"nombre":"Av. De Navarra / Miguel Herrero","lat":41.657771,"lon":-0.914937,"lineas":["52"]},"193":{"nombre":"Av. De Navarra / Ies Santiago Hernández","lat":41.657629,"lon":-0.915712,"lineas":["52"]},"194":{"nombre":"Av. Pablo Gargallo N.º 71","lat":41.66074,"lon":-0.899588,"lineas":["34","42","Ci3","N2"]},"195":{"nombre":"Av. Pablo Gargallo N.º 95","lat":41.661237,"lon":-0.902274,"lineas":["34","Ci3"]},"196":{"nombre":"Madre Teresa De Calcuta  N.º 3","lat":41.644236,"lon":-0.911263,"lineas":["33"]},"197":{"nombre":"Av. Gómez Laguna / Rotonda","lat":41.627067,"lon":-0.920274,"lineas":["55"]},"198":{"nombre":"Av. Pablo Gargallo / Bonn","lat":41.66147,"lon":-0.902255,"lineas":["34","Ci4"]},"199":{"nombre":"Av. Pablo Gargallo / Monasterio Sta. Lucía","lat":41.66014,"lon":-0.896708,"lineas":["34","42","Ci3","N2"]},"200":{"nombre":"Av. Pablo Gargallo / Plaza Europa","lat":41.65959,"lon":-0.894262,"lineas":["34","42","Ci3","N2"]},"203":{"nombre":"Av. Puente Del Pilar / Colegio","lat":41.659562,"lon":-0.867987,"lineas":["21","28","32","35","39","50","N1"]},"205":{"nombre":"Av. Puerta De Sancho N.º 20","lat":41.660764,"lon":-0.901892,"lineas":["42"]},"206":{"nombre":"Av. Puerta De Sancho N.º 23","lat":41.662765,"lon":-0.901259,"lineas":["34","42","Ci4","N2"]},"208":{"nombre":"Av. Real Zaragoza N.º 65","lat":41.666784,"lon":-0.823118,"lineas":["32","60","N1"]},"209":{"nombre":"Av. Ramón Sainz De Varanda / Colegio","lat":41.637814,"lon":-0.91044,"lineas":["35","42"]},"210":{"nombre":"Av. Salvador Allende N.º 5","lat":41.667555,"lon":-0.87679,"lineas":["29"]},"212":{"nombre":"Av. Salvador Allende N.º 67","lat":41.674815,"lon":-0.877201,"lineas":["29","44","50"]},"213":{"nombre":"Av. Salvador Allende Fte. N.º 85","lat":41.67744,"lon":-0.873996,"lineas":["29","44","50","N7"]},"214":{"nombre":"Av. Salvador Allende / San Juan De La Peña","lat":41.67751,"lon":-0.871893,"lineas":["29","44","50","N7"]},"215":{"nombre":"Av. Salvador Allende N.º 85","lat":41.677602,"lon":-0.874368,"lineas":["29","44","50"]},"216":{"nombre":"Av. Salvador Allende N.º 107","lat":41.677729,"lon":-0.872196,"lineas":["29","44","50"]},"217":{"nombre":"Av. Salvador Allende / Bomberos","lat":41.668001,"lon":-0.876455,"lineas":["29","N7"]},"218":{"nombre":"Av. Salvador Allende / Del Somport","lat":41.674934,"lon":-0.876831,"lineas":["29","44","50","N7"]},"219":{"nombre":"Hospital Royo Villanova","lat":41.69248,"lon":-0.862264,"lineas":["29"]},"221":{"nombre":"Av. De San José N.º 10","lat":41.645166,"lon":-0.872579,"lineas":["39","40","Ci3","N5"]},"222":{"nombre":"Av. De San José N.º 34","lat":41.643419,"lon":-0.872965,"lineas":["39","40","Ci3","N5"]},"223":{"nombre":"Av. De San José N.º 45","lat":41.64309,"lon":-0.872866,"lineas":["39","40","Ci4","N6"]},"224":{"nombre":"Av. De San José N.º 66","lat":41.640859,"lon":-0.873595,"lineas":["39","40","Ci3","N5"]},"226":{"nombre":"Av. De San José N.º 70","lat":41.639462,"lon":-0.874595,"lineas":["39","40","Ci3","N5"]},"227":{"nombre":"Av. De San José N.º 97","lat":41.639585,"lon":-0.874235,"lineas":["39","40"]},"228":{"nombre":"Av. De San José N.º 124","lat":41.638333,"lon":-0.87602,"lineas":["39","40"]},"229":{"nombre":"Av. De San José N.º 133","lat":41.638002,"lon":-0.876238,"lineas":["39","40"]},"230":{"nombre":"Av. De San José N.º 159","lat":41.636524,"lon":-0.878086,"lineas":["23","39","40"]},"232":{"nombre":"Av. De San José N.º 200","lat":41.635647,"lon":-0.879435,"lineas":["23","39","40","N5"]},"233":{"nombre":"Av. De San José N.º 209","lat":41.633977,"lon":-0.881461,"lineas":["39"]},"234":{"nombre":"Av. De San José N.º 224","lat":41.634058,"lon":-0.88155,"lineas":["23","N5"]},"235":{"nombre":"Av. De San José / Av. Tenor Fleta","lat":41.637193,"lon":-0.877464,"lineas":["39","40","N5"]},"236":{"nombre":"Av. San Juan Bosco N.º 7","lat":41.644577,"lon":-0.901006,"lineas":["22","35","38"]},"237":{"nombre":"Av. San Juan Bosco N.º 10","lat":41.644997,"lon":-0.900447,"lineas":["35","38","N4"]},"238":{"nombre":"Av. San Juan Bosco N.º 66 / Hospital Clínico","lat":41.643556,"lon":-0.904922,"lineas":["35","38","41","N4"]},"239":{"nombre":"Av. San Juan Bosco / Hospital Clínico","lat":41.643676,"lon":-0.903815,"lineas":["22","35","41"]},"240":{"nombre":"Av. Santa Isabel N.º 9 / Av. De La Industria","lat":41.670059,"lon":-0.839432,"lineas":["28","32","60","N1","N7"]},"243":{"nombre":"Av. Santa Isabel N.º 52","lat":41.667323,"lon":-0.834293,"lineas":["32","60","N1"]},"244":{"nombre":"Av. Santa Isabel N.º 59","lat":41.667524,"lon":-0.83511,"lineas":["32","60","N1"]},"247":{"nombre":"Av. Santa Isabel N.º 124","lat":41.666823,"lon":-0.829065,"lineas":["32","60","N1"]},"248":{"nombre":"Av. Santa Isabel N.º 141","lat":41.666951,"lon":-0.828785,"lineas":["32","60","N1"]},"249":{"nombre":"Av. Tenor Fleta N.º 2","lat":41.641741,"lon":-0.885417,"lineas":["23"]},"250":{"nombre":"Av. Tenor Fleta N.º 3","lat":41.642066,"lon":-0.88562,"lineas":["23"]},"251":{"nombre":"Av. Tenor Fleta N.º 33","lat":41.640402,"lon":-0.882322,"lineas":["23","Ci3"]},"252":{"nombre":"Av. Tenor Fleta N.º 34","lat":41.640286,"lon":-0.88251,"lineas":["23","Ci4"]},"253":{"nombre":"Av. Tenor Fleta N.º 57","lat":41.639076,"lon":-0.879746,"lineas":["23","Ci3"]},"254":{"nombre":"Av. Tenor Fleta N.º 62","lat":41.638675,"lon":-0.879408,"lineas":["23","Ci4"]},"255":{"nombre":"Av. Tenor Fleta N.º 82","lat":41.637838,"lon":-0.877794,"lineas":["23","Ci4"]},"256":{"nombre":"Av. Tenor Fleta N.º 89","lat":41.637915,"lon":-0.877482,"lineas":["23","Ci3"]},"257":{"nombre":"Av. Tenor Fleta N.º 124","lat":41.636523,"lon":-0.875281,"lineas":["Ci4"]},"258":{"nombre":"Av. Valdefierro N.º 1","lat":41.644522,"lon":-0.92652,"lineas":["36","38"]},"260":{"nombre":"Av. Valdefierro N.º 43","lat":41.640568,"lon":-0.928987,"lineas":["36","38"]},"261":{"nombre":"Av. Valdefierro N.º 27","lat":41.642043,"lon":-0.928066,"lineas":["36","38"]},"262":{"nombre":"Av. De Valencia N.º 8","lat":41.647406,"lon":-0.894482,"lineas":["35","38","41","N4","N6"]},"263":{"nombre":"Av. De Valencia N.º 38","lat":41.6463,"lon":-0.897181,"lineas":["35","38","41","N4"]},"264":{"nombre":"Av. De Valencia N.º 41","lat":41.646153,"lon":-0.897107,"lineas":["35","38","41"]},"265":{"nombre":"Av. De Valencia N.º 63","lat":41.645345,"lon":-0.899146,"lineas":["35","38"]},"266":{"nombre":"Balbino Orensanz N.º 7","lat":41.659461,"lon":-0.858928,"lineas":["39","50","N1"]},"267":{"nombre":"Balbino Orensanz N.º 29","lat":41.657568,"lon":-0.858834,"lineas":["39","50","N1"]},"268":{"nombre":"Balbino Orensanz / Parque De Oriente","lat":41.657281,"lon":-0.858755,"lineas":["39","50","N1"]},"269":{"nombre":"Balbino Orensanz / Velilla De Ebro","lat":41.659159,"lon":-0.859079,"lineas":["39","50","N1"]},"270":{"nombre":"Betore Bergua N.º 1","lat":41.655014,"lon":-0.855963,"lineas":["39","N1"]},"271":{"nombre":"Biarritz N.º 14","lat":41.655606,"lon":-0.920254,"lineas":["22"]},"273":{"nombre":"C.M.E. Grande Covián","lat":41.664538,"lon":-0.858521,"lineas":["50"]},"274":{"nombre":"C.S. Las Fuentes Norte","lat":41.649366,"lon":-0.86428,"lineas":["44"]},"275":{"nombre":"Terrazas De Cuéllar N.º 4","lat":41.632215,"lon":-0.879468,"lineas":["23"]},"277":{"nombre":"Carmen N.º 19","lat":41.646681,"lon":-0.892946,"lineas":["35","38","N6"]},"278":{"nombre":"Catorce De Septiembre N.º 29","lat":41.604668,"lon":-0.824091,"lineas":["25","N6"]},"279":{"nombre":"Cejador Frauca N.º 10","lat":41.635217,"lon":-0.891053,"lineas":["Ci2"]},"280":{"nombre":"Celso Emilio Ferreiro N.º 6","lat":41.654143,"lon":-0.913552,"lineas":["32"]},"281":{"nombre":"Celso Emilio Ferreiro N.º 15","lat":41.653178,"lon":-0.915528,"lineas":["32"]},"282":{"nombre":"Celso Emilio Ferreiro / Celanova","lat":41.654212,"lon":-0.911205,"lineas":["32"]},"283":{"nombre":"Av. De La Ilustración N.º 40","lat":41.629188,"lon":-0.941254,"lineas":["41"]},"284":{"nombre":"Camino De Las Torres N.º 10","lat":41.646645,"lon":-0.873951,"lineas":["29","Ci1"]},"285":{"nombre":"Camino De Las Torres N.º 17","lat":41.645784,"lon":-0.875289,"lineas":["Ci2"]},"287":{"nombre":"Camino De Las Torres N.º 35","lat":41.644222,"lon":-0.878694,"lineas":["Ci2"]},"288":{"nombre":"Camino De Las Torres N.º 40","lat":41.644386,"lon":-0.878719,"lineas":["Ci1"]},"289":{"nombre":"Camino De Las Torres N.º 49","lat":41.642907,"lon":-0.881198,"lineas":["Ci2"]},"290":{"nombre":"Camino De Las Torres N.º 79","lat":41.641304,"lon":-0.883336,"lineas":["Ci2"]},"291":{"nombre":"Camino De Las Torres N.º 105","lat":41.640155,"lon":-0.885462,"lineas":["Ci4"]},"293":{"nombre":"Camino De Las Torres N.º 116","lat":41.640182,"lon":-0.885835,"lineas":["Ci1","Ci3"]},"294":{"nombre":"Camino De Las Torres / Plaza Schweitzer","lat":41.642656,"lon":-0.881946,"lineas":["Ci1"]},"296":{"nombre":"Camino Del Pilón N.º 57","lat":41.658517,"lon":-0.931057,"lineas":["52"]},"297":{"nombre":"Camino Del Pilón N.º 86 / Ibón De Plan","lat":41.658965,"lon":-0.937289,"lineas":["52","53"]},"298":{"nombre":"Camino Del Pilón N.º 122","lat":41.658741,"lon":-0.941138,"lineas":["52","53","N3"]},"299":{"nombre":"Camino Del Pilón N.º 131","lat":41.658622,"lon":-0.940429,"lineas":["52","53","N3"]},"300":{"nombre":"Camino Del Pilón / Iglesia","lat":41.658652,"lon":-0.942158,"lineas":["52","53","N3"]},"301":{"nombre":"Camino Del Pilón / Ibón De Plan","lat":41.658866,"lon":-0.936974,"lineas":["52","53","N3"]},"304":{"nombre":"Camino Del Pilón / Anillo Verde","lat":41.658722,"lon":-0.925597,"lineas":["52"]},"305":{"nombre":"Ismael Hipólito Lor Vicente","lat":41.658016,"lon":-0.927621,"lineas":["52"]},"308":{"nombre":"Comín Ros N.º 3","lat":41.655058,"lon":-0.913025,"lineas":["32"]},"309":{"nombre":"Celso Emilio Ferreiro N.º 12","lat":41.653583,"lon":-0.915415,"lineas":["32"]},"312":{"nombre":"Av. Compromiso De Caspe N.º 27","lat":41.646092,"lon":-0.869449,"lineas":["Ci3","N5"]},"313":{"nombre":"Av. Compromiso De Caspe N.º 48","lat":41.645447,"lon":-0.86495,"lineas":["22","30","Ci4","N5"]},"314":{"nombre":"Av. Compromiso De Caspe N.º 72","lat":41.645159,"lon":-0.861745,"lineas":["22"]},"315":{"nombre":"Conde De Aranda N.º 2  / Colegio","lat":41.654439,"lon":-0.885217,"lineas":["32","33","34","52","N2","N3","N7"]},"317":{"nombre":"Conde De Aranda N.º 3  / Colegio","lat":41.654208,"lon":-0.884858,"lineas":["32","33","52","N3"]},"320":{"nombre":"Conde De Aranda N.º 41","lat":41.655053,"lon":-0.888212,"lineas":["32","33","34","52","N3"]},"321":{"nombre":"Conde De Aranda N.º 62","lat":41.655229,"lon":-0.888393,"lineas":["32","33","34","52","N2","N3","N7"]},"324":{"nombre":"Conde De Aranda N.º 122 / Plaza Del Portillo","lat":41.655915,"lon":-0.891706,"lineas":["32","33","34","52","N2","N3","N7"]},"325":{"nombre":"Condes De Aragón N.º 16","lat":41.638776,"lon":-0.905801,"lineas":["35","42","53"]},"326":{"nombre":"Condes De Aragón / Av. Juan Pablo Ii","lat":41.636778,"lon":-0.907159,"lineas":["35","42","N4"]},"327":{"nombre":"Condes De Aragón / Vía Hispanidad","lat":41.634527,"lon":-0.908711,"lineas":["35","42","N4"]},"328":{"nombre":"Corona De Aragón N.º 33","lat":41.643323,"lon":-0.896761,"lineas":["Ci4"]},"329":{"nombre":"Corona De Aragón N.º 51","lat":41.644722,"lon":-0.899404,"lineas":["Ci4"]},"333":{"nombre":"Coso N.º 54 / Banco De España","lat":41.651857,"lon":-0.880106,"lineas":["21"]},"334":{"nombre":"Coso N.º 55 / Teatro Principal","lat":41.651838,"lon":-0.879568,"lineas":["21","38"]},"335":{"nombre":"Coso N.º 62","lat":41.651632,"lon":-0.87956,"lineas":["38","39"]},"336":{"nombre":"Coso N.º 66","lat":41.65149,"lon":-0.879185,"lineas":["28"]},"338":{"nombre":"Coso N.º 126","lat":41.650877,"lon":-0.87549,"lineas":["21","22","28","32","35","N1"]},"340":{"nombre":"Coso N.º 188","lat":41.652732,"lon":-0.872203,"lineas":["21","22","28","29","32","35","39","N1"]},"346":{"nombre":"Cristo Rey N.º 23","lat":41.692956,"lon":-0.865967,"lineas":["29","50","N7"]},"347":{"nombre":"Cristo Rey N.º 77","lat":41.690968,"lon":-0.863733,"lineas":["29","50","N7"]},"348":{"nombre":"Martín Díez De Aux N.º 4","lat":41.628167,"lon":-0.943721,"lineas":["41","N4"]},"349":{"nombre":"Ctra. Castellón / Cementerio","lat":41.628229,"lon":-0.852725,"lineas":["25","N6"]},"350":{"nombre":"Ctra. Castellón P.K. 231","lat":41.611178,"lon":-0.834823,"lineas":["25","N6"]},"352":{"nombre":"José Ramírez N.º 82","lat":41.604943,"lon":-0.826969,"lineas":["25","N6"]},"353":{"nombre":"Ctra. Castellón Fte. Cementerio","lat":41.628104,"lon":-0.852979,"lineas":["25","N6"]},"354":{"nombre":"Carretera Castellón / Gasolinera","lat":41.623133,"lon":-0.846293,"lineas":["25","N6"]},"355":{"nombre":"Estación Delicias / Acceso Salidas","lat":41.658029,"lon":-0.908494,"lineas":["34","51","Ci2","Ci4"]},"356":{"nombre":"Ctra. Castellón / Pol. Ind. San Valero","lat":41.618562,"lon":-0.842557,"lineas":["25","N6"]},"357":{"nombre":"Ctra. Castellón / Pol. Ind. San Valero","lat":41.618108,"lon":-0.843924,"lineas":["25","N6"]},"361":{"nombre":"Av. M.Rodriguez Ayuso N.º 11","lat":41.646501,"lon":-0.922801,"lineas":["36"]},"362":{"nombre":"Av. M.Rodriguez Ayuso N.º 44","lat":41.648411,"lon":-0.921423,"lineas":["36","N3"]},"363":{"nombre":"Av. M.Rodriguez Ayuso / Anillo Verde","lat":41.646508,"lon":-0.923217,"lineas":["36","N3"]},"365":{"nombre":"Bernardo Ramazzini N.º 5","lat":41.684488,"lon":-0.868712,"lineas":["29"]},"366":{"nombre":"Autovía De Huesca / Pasarela","lat":41.692828,"lon":-0.869986,"lineas":["29","N7"]},"367":{"nombre":"Av. De Montañana N.º 159","lat":41.680581,"lon":-0.829534,"lineas":["28","N7"]},"368":{"nombre":"Av. De Montañana N.º 182","lat":41.681186,"lon":-0.829176,"lineas":["28","N7"]},"369":{"nombre":"Av. De Montañana N.º 254","lat":41.684746,"lon":-0.828816,"lineas":["28","N7"]},"370":{"nombre":"Av. De Montañana N.º 283","lat":41.686442,"lon":-0.828834,"lineas":["28","N7"]},"371":{"nombre":"Av. De Montañana N.º 288","lat":41.686843,"lon":-0.828646,"lineas":["28","N7"]},"372":{"nombre":"Av. De Montañana N.º 332","lat":41.68891,"lon":-0.82739,"lineas":["28","N7"]},"373":{"nombre":"Av. De Montañana N.º 341","lat":41.688668,"lon":-0.827801,"lineas":["28","N7"]},"374":{"nombre":"Av. De Montañana N.º 354","lat":41.68981,"lon":-0.826487,"lineas":["28","N7"]},"375":{"nombre":"Av. De Montañana N.º 381","lat":41.689917,"lon":-0.826549,"lineas":["28","N7"]},"376":{"nombre":"Av. De Montañana N.º 382","lat":41.691134,"lon":-0.825156,"lineas":["28","N7"]},"377":{"nombre":"Av. De Montañana N.º 419","lat":41.691197,"lon":-0.825267,"lineas":["28","N7"]},"378":{"nombre":"Av. De Montañana N.º 489","lat":41.692768,"lon":-0.822755,"lineas":["28","N7"]},"379":{"nombre":"Av. De Montañana N.º 541","lat":41.693764,"lon":-0.820955,"lineas":["28","N7"]},"380":{"nombre":"Av. De Montañana N.º 574","lat":41.695022,"lon":-0.818684,"lineas":["28","N7"]},"381":{"nombre":"Av. De Montañana N.º 584","lat":41.695734,"lon":-0.817181,"lineas":["28","N7"]},"382":{"nombre":"Av. De Montañana N.º 587","lat":41.69503,"lon":-0.818944,"lineas":["28","N7"]},"383":{"nombre":"Av. De Montañana N.º 625","lat":41.695766,"lon":-0.817442,"lineas":["28","N7"]},"384":{"nombre":"Av. De Montañana / Supermercado","lat":41.670529,"lon":-0.838264,"lineas":["28","N7"]},"385":{"nombre":"Av. De Montañana / Fte. Supermercado","lat":41.670586,"lon":-0.838525,"lineas":["28","N7"]},"386":{"nombre":"Av. De Montañana N.º 500","lat":41.69368,"lon":-0.820863,"lineas":["28","N7"]},"387":{"nombre":"Av. De Montañana Fte. N.º 254","lat":41.684496,"lon":-0.828989,"lineas":["28","N7"]},"388":{"nombre":"Av. De Montañana Fte. N.º 489","lat":41.692621,"lon":-0.822795,"lineas":["28","N7"]},"389":{"nombre":"Av. De Montañana / Gasolinera","lat":41.67267,"lon":-0.83374,"lineas":["28","N7"]},"390":{"nombre":"Av. De Montañana / Báscula","lat":41.676917,"lon":-0.829731,"lineas":["28","N7"]},"391":{"nombre":"Av. De Montañana N.º 98 / Báscula","lat":41.677271,"lon":-0.829625,"lineas":["28","N7"]},"392":{"nombre":"Av. De Montañana / Vivero","lat":41.672827,"lon":-0.833819,"lineas":["28","N7"]},"393":{"nombre":"Av. De Montañana N.º 678","lat":41.700455,"lon":-0.815117,"lineas":["28","N7"]},"394":{"nombre":"Av. De Montañana N.º 720","lat":41.703122,"lon":-0.814836,"lineas":["28","N7"]},"395":{"nombre":"Av. De Montañana N.º 777","lat":41.702688,"lon":-0.815124,"lineas":["28","N7"]},"396":{"nombre":"Av. De Montañana N.º 788","lat":41.705837,"lon":-0.814262,"lineas":["28","N7"]},"397":{"nombre":"Av. De Montañana N.º 826","lat":41.707717,"lon":-0.813767,"lineas":["28","N7"]},"398":{"nombre":"Av. De Montañana N.º 895","lat":41.707607,"lon":-0.814008,"lineas":["28","N7"]},"399":{"nombre":"Av. De Montañana N.º 844","lat":41.710689,"lon":-0.812569,"lineas":["28","N7"]},"400":{"nombre":"Av. De Montañana N.º 935","lat":41.710598,"lon":-0.812824,"lineas":["28","N7"]},"401":{"nombre":"Av. De Montañana N.º 876","lat":41.713819,"lon":-0.811188,"lineas":["28","N7"]},"402":{"nombre":"Av. De Montañana N.º 999","lat":41.719622,"lon":-0.81023,"lineas":["28","N7"]},"403":{"nombre":"Ctra. Peñaflor / Camino Azud De Urzán","lat":41.730252,"lon":-0.808957,"lineas":["28","N7"]},"404":{"nombre":"Ctra. Peñaflor C. Protección Animal","lat":41.74241,"lon":-0.805977,"lineas":["28","N7"]},"405":{"nombre":"Ctra. Peñaflor Fte. C. Protección Animal","lat":41.741873,"lon":-0.806389,"lineas":["28","N7"]},"406":{"nombre":"Av. De Montañana / Cno. B. Las Flores","lat":41.718251,"lon":-0.810033,"lineas":["28","N7"]},"407":{"nombre":"Av. De Montañana / Cno. B. Las Flores","lat":41.718243,"lon":-0.810198,"lineas":["28","N7"]},"408":{"nombre":"Ctra. Peñaflor / Cita","lat":41.723503,"lon":-0.81085,"lineas":["28","N7"]},"409":{"nombre":"Ctra. Peñaflor / Centro Experimental Aula Dei","lat":41.724634,"lon":-0.81036,"lineas":["28","N7"]},"410":{"nombre":"Ctra. Peñaflor / Cartuja Aula Dei","lat":41.732958,"lon":-0.809024,"lineas":["28","N7"]},"411":{"nombre":"Ctra. Peñaflor / Camino Perdiguera","lat":41.732995,"lon":-0.808798,"lineas":["28","N7"]},"412":{"nombre":"Av. Peñaflor Fte. N.º 27","lat":41.756804,"lon":-0.797643,"lineas":["28","N7"]},"413":{"nombre":"Ctra. Peñaflor / Camino Azud Urdán","lat":41.730368,"lon":-0.808764,"lineas":["28","N7"]},"414":{"nombre":"Av. De Montañana N.º 839","lat":41.705635,"lon":-0.814457,"lineas":["28","N7"]},"415":{"nombre":"Av. De Montañana N.º 967","lat":41.713688,"lon":-0.811408,"lineas":["28","N7"]},"416":{"nombre":"Av. De Montañana Fte. N.º 999","lat":41.719695,"lon":-0.810064,"lineas":["28","N7"]},"417":{"nombre":"Av. De Montañana N.º 709","lat":41.700012,"lon":-0.815296,"lineas":["28","N7"]},"418":{"nombre":"Ctra. Peñaflor Fte. Camino El Regao","lat":41.735031,"lon":-0.808828,"lineas":["28","N7"]},"419":{"nombre":"Av. Peñaflor N.º 27","lat":41.756697,"lon":-0.797868,"lineas":["28","N7"]},"420":{"nombre":"Av. De Montañana N.º 981","lat":41.715857,"lon":-0.810944,"lineas":["28","N7"]},"421":{"nombre":"Av. De Montañana N.º 886","lat":41.715522,"lon":-0.810802,"lineas":["28","N7"]},"422":{"nombre":"Ctra. Peñaflor / Camino El Regao","lat":41.735144,"lon":-0.808572,"lineas":["28","N7"]},"423":{"nombre":"Ctra. Peñaflor / Torre Givalta","lat":41.745208,"lon":-0.804348,"lineas":["28","N7"]},"424":{"nombre":"Ctra. Peñaflor / Campanero","lat":41.745084,"lon":-0.804611,"lineas":["28","N7"]},"425":{"nombre":"Cuarta Avenida N.º 21","lat":41.624858,"lon":-0.87645,"lineas":["23","31","C4","N5"]},"426":{"nombre":"Cuarta Avenida N.º 62","lat":41.624717,"lon":-0.877487,"lineas":["23","C4","N5"]},"427":{"nombre":"Av. Peñaflor N.º 79","lat":41.760008,"lon":-0.796061,"lineas":["28","N7"]},"429":{"nombre":"Doctor Iranzo N.º 37","lat":41.645176,"lon":-0.864419,"lineas":["44"]},"430":{"nombre":"Doctor Iranzo N.º 61","lat":41.647839,"lon":-0.863893,"lineas":["30","44","N5"]},"431":{"nombre":"Doctor Iranzo N.º 90 / C.S. Las Fuentes Norte","lat":41.650115,"lon":-0.863462,"lineas":["44"]},"432":{"nombre":"Plaza De Ariño","lat":41.653461,"lon":-0.87828,"lineas":["28","35","39"]},"433":{"nombre":"Don Jaime I / Plaza De La Seo","lat":41.655328,"lon":-0.876698,"lineas":["28","29","35","39","N1","N2","N7"]},"434":{"nombre":"Duquesa Villahermosa N.º 3","lat":41.649043,"lon":-0.899544,"lineas":["22","N6"]},"435":{"nombre":"Duquesa Villahermosa N.º 10","lat":41.648789,"lon":-0.90101,"lineas":["22","N6"]},"436":{"nombre":"Duquesa Villahermosa N.º 42","lat":41.647952,"lon":-0.903369,"lineas":["22","N6"]},"437":{"nombre":"Duquesa Villahermosa N.º 97","lat":41.647478,"lon":-0.904234,"lineas":["38","N6"]},"439":{"nombre":"Duquesa Villahermosa N.º 155","lat":41.64436,"lon":-0.913653,"lineas":["38","N6"]},"440":{"nombre":"Duquesa Villahermosa / Alferez Rojas","lat":41.644486,"lon":-0.914122,"lineas":["38","N6"]},"442":{"nombre":"Duquesa Villahermosa N.º 109 / Vía Univérsitas","lat":41.646928,"lon":-0.906487,"lineas":["22","N6"]},"443":{"nombre":"Duquesa Villahermosa / Centro Deportivo Municipal","lat":41.646677,"lon":-0.906575,"lineas":["38","N6"]},"444":{"nombre":"San Antonio De Padua / Valladolid","lat":41.628916,"lon":-0.87536,"lineas":["42"]},"445":{"nombre":"Campus Río Ebro","lat":41.683884,"lon":-0.889499,"lineas":["43","44"]},"446":{"nombre":"Escultor Palao","lat":41.648195,"lon":-0.917342,"lineas":["33"]},"448":{"nombre":"Faustino Casamayor N.º 20","lat":41.626077,"lon":-0.879267,"lineas":["23","N5"]},"451":{"nombre":"Felisa Galé N.º 7","lat":41.663242,"lon":-0.860973,"lineas":["39","44","50","N1"]},"460":{"nombre":"Doctor Iranzo / José Martínez Ruiz Azorín","lat":41.651021,"lon":-0.863052,"lineas":["30"]},"461":{"nombre":"María De Aragón / C.S. Torre Ramona","lat":41.640694,"lon":-0.86272,"lineas":["44"]},"462":{"nombre":"Av. Peñaflor / Cuartel Guardia Civil","lat":41.758718,"lon":-0.796915,"lineas":["28","N7"]},"463":{"nombre":"Franco Y López N.º 57","lat":41.647843,"lon":-0.901894,"lineas":["Ci4"]},"464":{"nombre":"Fray Julián Garcés N.º 52","lat":41.629127,"lon":-0.887605,"lineas":["31","33","34","39","42","C4"]},"466":{"nombre":"Av. De La Ilustración N.º 37","lat":41.62793,"lon":-0.941506,"lineas":["41","54"]},"467":{"nombre":"Fray Julián Garcés N.º 88","lat":41.627609,"lon":-0.88821,"lineas":["34","39","C1"]},"468":{"nombre":"Fray Julián Garcés N.º 106","lat":41.625427,"lon":-0.888916,"lineas":["34"]},"469":{"nombre":"Fray Luis Urbano/ Rodrigo Rebolledo","lat":41.645819,"lon":-0.859163,"lineas":["Ci3"]},"470":{"nombre":"Fray Luis Urbano / Madrina Salinas","lat":41.648444,"lon":-0.858693,"lineas":["Ci3"]},"471":{"nombre":"Fueros De Aragón N.º 15","lat":41.646842,"lon":-0.895095,"lineas":["35","38","41"]},"472":{"nombre":"Gabriel Gombao N.º 9","lat":41.627907,"lon":-0.88301,"lineas":["31","42","C4","N5"]},"473":{"nombre":"Gabriel Gombao N.º 31","lat":41.628121,"lon":-0.881586,"lineas":["42"]},"475":{"nombre":"Demetrio Galán Bergua / Colegio","lat":41.646937,"lon":-0.913995,"lineas":["33"]},"476":{"nombre":"D. Galán Bergua / Parque","lat":41.649219,"lon":-0.916177,"lineas":["33"]},"477":{"nombre":"García Arista N.º 16","lat":41.659342,"lon":-0.876976,"lineas":["50"]},"478":{"nombre":"García Lorca N.º 13","lat":41.634706,"lon":-0.878479,"lineas":["23","40"]},"479":{"nombre":"García Sánchez N.º 26","lat":41.647495,"lon":-0.899399,"lineas":["22","Ci3"]},"480":{"nombre":"Gascón De Gotor N.º 4","lat":41.639586,"lon":-0.887402,"lineas":["Ci1"]},"481":{"nombre":"Gascón De Gotor N.º 26","lat":41.638525,"lon":-0.889235,"lineas":["Ci1"]},"482":{"nombre":"Valle De Zuriza N.º 10","lat":41.662032,"lon":-0.874904,"lineas":["50"]},"489":{"nombre":"G. Gómez Avellaneda N.º 73","lat":41.675436,"lon":-0.890743,"lineas":["43","44"]},"491":{"nombre":"G. Gómez Avellaneda N.º 83","lat":41.676899,"lon":-0.890724,"lineas":["43","44"]},"493":{"nombre":"Valle De Broto / G.Gómez Avellaneda","lat":41.664854,"lon":-0.886417,"lineas":["23","42","N2"]},"497":{"nombre":"Gran Vía N.º 11","lat":41.646191,"lon":-0.887343,"lineas":["N4"]},"505":{"nombre":"Hernán Cortés N.º 6","lat":41.649402,"lon":-0.888366,"lineas":["35","38"]},"507":{"nombre":"Hernán Cortés N.º 35","lat":41.647687,"lon":-0.890615,"lineas":["35","38","N6"]},"508":{"nombre":"Ignacio Zapata / Ruste","lat":41.661761,"lon":-0.858772,"lineas":["39","50","N1"]},"510":{"nombre":"P. Isabel La Católica N.º 3","lat":41.633835,"lon":-0.902972,"lineas":["42","N4"]},"513":{"nombre":"P. Isabel La Católica N.º 18 / Pedro Iv","lat":41.633857,"lon":-0.903279,"lineas":["42"]},"518":{"nombre":"P. Isabel La Católica / Romareda","lat":41.635396,"lon":-0.901198,"lineas":["42"]},"520":{"nombre":"P. Isabel La Católica / Hospital Infantil","lat":41.636175,"lon":-0.899812,"lineas":["42","N4"]},"525":{"nombre":"Jerónimo Cáncer N.º 24","lat":41.652999,"lon":-0.928781,"lineas":["21","53"]},"527":{"nombre":"Jesús Y María N.º 15","lat":41.694654,"lon":-0.868661,"lineas":["29","N7"]},"528":{"nombre":"Jesús Y María N.º 61","lat":41.693736,"lon":-0.866077,"lineas":["29","50"]},"529":{"nombre":"Jesús Y María N.º 89","lat":41.693011,"lon":-0.864226,"lineas":["29","50"]},"530":{"nombre":"Joaquín Sorolla  / Parque De La Memoria","lat":41.633297,"lon":-0.878622,"lineas":["40"]},"532":{"nombre":"Jorge Cocci N.º 17","lat":41.646616,"lon":-0.869141,"lineas":["22","30"]},"534":{"nombre":"Av. Puerta De Sancho N.º 3","lat":41.660265,"lon":-0.902502,"lineas":["42"]},"537":{"nombre":"Av. Juan Carlos I / Jardines De Taifá","lat":41.639206,"lon":-0.907939,"lineas":["53"]},"538":{"nombre":"Juan De La Cierva N.º 9","lat":41.666664,"lon":-0.859329,"lineas":["44","N7"]},"539":{"nombre":"Juan De La Cierva N.º 29","lat":41.671638,"lon":-0.861878,"lineas":["44","N7"]},"541":{"nombre":"Juan Pablo Bonet N.º 20","lat":41.640639,"lon":-0.888648,"lineas":["Ci3"]},"542":{"nombre":"Juan Pablo Bonet N.º 23","lat":41.640497,"lon":-0.888717,"lineas":["Ci4"]},"543":{"nombre":"Av. Juan Pablo Ii N.º 60","lat":41.637759,"lon":-0.908103,"lineas":["35","42","53","N4"]},"544":{"nombre":"Av. Juan Pablo Ii / Centro Comercial","lat":41.64099,"lon":-0.910412,"lineas":["53","N4"]},"545":{"nombre":"La Salud / San Viator","lat":41.627191,"lon":-0.875497,"lineas":["42"]},"546":{"nombre":"Ctra. Peñaflor (Terminal)","lat":41.762439,"lon":-0.794828,"lineas":["28","N7"]},"547":{"nombre":"Av. Puerta De Sancho N.º 8","lat":41.659687,"lon":-0.902647,"lineas":["42"]},"548":{"nombre":"Lapuyade N.º 3","lat":41.636203,"lon":-0.884049,"lineas":["39"]},"549":{"nombre":"Lapuyade N.º 43","lat":41.634785,"lon":-0.88138,"lineas":["39"]},"550":{"nombre":"Lasierra Purroy N.º 104","lat":41.62719,"lon":-0.883547,"lineas":["31","42","C4"]},"551":{"nombre":"López De Luna N.º 13","lat":41.645616,"lon":-0.902806,"lineas":["38"]},"552":{"nombre":"Luciano Gracia / Campus Río Ebro","lat":41.683545,"lon":-0.890062,"lineas":["43"]},"554":{"nombre":"Luciano Gracia / Rotonda De Juslibol","lat":41.686243,"lon":-0.889878,"lineas":["43"]},"555":{"nombre":"Luciano Gracia / Rotonda De Juslibol","lat":41.686445,"lon":-0.889627,"lineas":["N2"]},"556":{"nombre":"Lugo N.º 134","lat":41.62638,"lon":-0.88011,"lineas":["31","42"]},"558":{"nombre":"Luis Vives N.º 9","lat":41.638426,"lon":-0.895759,"lineas":["42","Ci1"]},"559":{"nombre":"Manuel De Falla N.º 4","lat":41.655293,"lon":-0.91937,"lineas":["32"]},"560":{"nombre":"Manuel Lasala N.º 44","lat":41.637506,"lon":-0.897137,"lineas":["42","Ci2"]},"561":{"nombre":"María Zambrano N.º 16 / Pablo Neruda","lat":41.669235,"lon":-0.888624,"lineas":["43","50","Ci2","N2"]},"565":{"nombre":"María Zambrano N.º 48","lat":41.674447,"lon":-0.889332,"lineas":["43","44","N2"]},"574":{"nombre":"Mariano Barbasán N.º 13","lat":41.642153,"lon":-0.89126,"lineas":["Ci3"]},"575":{"nombre":"Mariano Baselga N.º 11","lat":41.6611,"lon":-0.877673,"lineas":["36"]},"576":{"nombre":"Marqués De La Cadena N.º 57 / Plaza Mozart","lat":41.662905,"lon":-0.865834,"lineas":["Ci1"]},"580":{"nombre":"Marqués De La Cadena / Plaza Mozart","lat":41.662984,"lon":-0.865559,"lineas":["Ci2"]},"581":{"nombre":"Marqués De La Cadena / Puente De La Unión","lat":41.654536,"lon":-0.86099,"lineas":["44","Ci2"]},"582":{"nombre":"Melilla / Joaquín Sorolla","lat":41.633644,"lon":-0.878297,"lineas":["40"]},"583":{"nombre":"Melilla / Escultor Salas","lat":41.632724,"lon":-0.876781,"lineas":["40"]},"584":{"nombre":"Miguel Servet N.º 13","lat":41.647574,"lon":-0.874113,"lineas":["38","39","40"]},"585":{"nombre":"Miguel Servet N.º 28","lat":41.647524,"lon":-0.874263,"lineas":["29","38","39","40"]},"586":{"nombre":"Miguel Servet N.º 37","lat":41.645869,"lon":-0.871775,"lineas":["38"]},"587":{"nombre":"Miguel Servet N.º 57","lat":41.64481,"lon":-0.870609,"lineas":["38"]},"588":{"nombre":"Miguel Servet N.º 60","lat":41.645688,"lon":-0.871761,"lineas":["38","N6"]},"589":{"nombre":"Miguel Servet N.º 71 / Minas","lat":41.643236,"lon":-0.869117,"lineas":["38"]},"590":{"nombre":"Miguel Servet N.º 86","lat":41.644271,"lon":-0.870212,"lineas":["38","N6"]},"591":{"nombre":"Miguel Servet / Francisco Quevedo","lat":41.640831,"lon":-0.866958,"lineas":["38"]},"593":{"nombre":"Miguel Servet N.º 122","lat":41.642401,"lon":-0.868543,"lineas":["38","N6"]},"594":{"nombre":"Miguel Servet N.º 123 / Padre Chaminade","lat":41.638834,"lon":-0.865331,"lineas":["38"]},"598":{"nombre":"Cochera Avanza","lat":41.632298,"lon":-0.858349,"lineas":["38"]},"599":{"nombre":"Miguel Servet N.º 199","lat":41.63275,"lon":-0.859774,"lineas":["25","38","N6"]},"600":{"nombre":"Miguel Servet N.º 204","lat":41.637696,"lon":-0.864671,"lineas":["38","N6"]},"601":{"nombre":"Miguel Servet / 3er Cinturón","lat":41.635484,"lon":-0.862706,"lineas":["38","N6"]},"602":{"nombre":"Miguel Servet / Belchite","lat":41.641326,"lon":-0.867617,"lineas":["38","N6"]},"604":{"nombre":"Nuestra Señora De Los ángeles/ Vía Hispanidad","lat":41.643873,"lon":-0.91651,"lineas":["38"]},"605":{"nombre":"Miguel Servet N.º 147","lat":41.636504,"lon":-0.863508,"lineas":["38"]},"606":{"nombre":"Monte Perdido / María Domínguez Remón","lat":41.673134,"lon":-0.87285,"lineas":["36"]},"607":{"nombre":"Monte Perdido N.º 38 /J.L Lacruz","lat":41.672966,"lon":-0.8727,"lineas":["36"]},"608":{"nombre":"Numancia / Maria Blasco","lat":41.660772,"lon":-0.857896,"lineas":["50"]},"609":{"nombre":"Oviedo N.º 175","lat":41.625712,"lon":-0.877926,"lineas":["23","31","C4","N5"]},"610":{"nombre":"Pablo Parellada N.º 27","lat":41.626798,"lon":-0.880643,"lineas":["23","31","C4","N5"]},"611":{"nombre":"Pablo Ruiz Picasso N.º 2","lat":41.673164,"lon":-0.878252,"lineas":["44","50"]},"612":{"nombre":"Pablo Ruiz Picasso N.º 5","lat":41.672901,"lon":-0.878837,"lineas":["44","50"]},"615":{"nombre":"Pablo Ruiz Picasso N.º 34","lat":41.673225,"lon":-0.888303,"lineas":["44","50"]},"616":{"nombre":"Pablo Ruiz Picasso N.º 35","lat":41.672948,"lon":-0.888438,"lineas":["44","50"]},"619":{"nombre":"Sigües / Parque De Delicias","lat":41.646343,"lon":-0.912775,"lineas":["33"]},"620":{"nombre":"Pascuala Perié N.º 2","lat":41.662453,"lon":-0.863511,"lineas":["39","N1"]},"623":{"nombre":"Pedro Iii / Asín Y Palacios","lat":41.636877,"lon":-0.905294,"lineas":["35","42","53"]},"625":{"nombre":"Pedro Porter N.º 5","lat":41.65281,"lon":-0.926761,"lineas":["21","53"]},"626":{"nombre":"Valle De Oza / Peña Oroel","lat":41.663936,"lon":-0.875461,"lineas":["50"]},"627":{"nombre":"Las Pleyades / Berenice","lat":41.63961,"lon":-0.935251,"lineas":["36","38"]},"628":{"nombre":"P. Calanda N.º 20","lat":41.652978,"lon":-0.904254,"lineas":["Ci4"]},"630":{"nombre":"P. Cristobal Colón N.º 2","lat":41.633639,"lon":-0.885694,"lineas":["42"]},"631":{"nombre":"P. Cristobal Colón N.º 14","lat":41.633824,"lon":-0.888729,"lineas":["42"]},"632":{"nombre":"P. De La Constitución N.º 11 / Plaza Aragón","lat":41.648001,"lon":-0.883674,"lineas":["25","30","51","N6"]},"633":{"nombre":"P. De La Constitución N.º 16 / San Ignacio De Loyola","lat":41.647736,"lon":-0.881779,"lineas":["25","40","51","N6"]},"634":{"nombre":"P. De La Constitución N.º 33 / Plaza De Los Sitios","lat":41.647607,"lon":-0.880207,"lineas":["25","30","51","N6"]},"635":{"nombre":"P. De Cuéllar N.º 20 / Iglesia","lat":41.634346,"lon":-0.884952,"lineas":["31","33","34","39"]},"636":{"nombre":"P. De Cuéllar N.º 29","lat":41.637875,"lon":-0.884248,"lineas":["31","33","34","N5"]},"637":{"nombre":"P. De Cuéllar N.º 47","lat":41.636078,"lon":-0.884494,"lineas":["31","33","34","N5"]},"638":{"nombre":"P. De Cuéllar / San Fernando","lat":41.634592,"lon":-0.8847,"lineas":["31","33","34","39","N5"]},"639":{"nombre":"P. De Cuéllar / Lapuyade","lat":41.636617,"lon":-0.884655,"lineas":["31","33","34"]},"640":{"nombre":"P. De Cuéllar / Parque Pignatelli","lat":41.638574,"lon":-0.885471,"lineas":["31","33","34"]},"641":{"nombre":"P. De Los Plátanos N.º 10","lat":41.60616,"lon":-0.823546,"lineas":["25","N6"]},"643":{"nombre":"Ctra. Castellón / Rotonda Valmadrid","lat":41.605794,"lon":-0.828766,"lineas":["25","N6"]},"644":{"nombre":"P. Del Canal N.º 47","lat":41.630322,"lon":-0.880323,"lineas":["23"]},"645":{"nombre":"P.Tierno Galván / E. Pérez Vidal","lat":41.628979,"lon":-0.873355,"lineas":["42"]},"651":{"nombre":"P. Echegaray Y Caballero / S. Minguijón","lat":41.650943,"lon":-0.860234,"lineas":["Ci3"]},"652":{"nombre":"P. Echegaray Y Caballero N.º 12","lat":41.65868,"lon":-0.889618,"lineas":["36","Ci3","N7"]},"653":{"nombre":"P. Echegaray Y Caballero / Colegio","lat":41.658035,"lon":-0.885184,"lineas":["36","Ci3","N7"]},"654":{"nombre":"P. Echegaray Y Caballero N.º 112","lat":41.655689,"lon":-0.875051,"lineas":["Ci3"]},"659":{"nombre":"P. Echegaray Y Caballero / Plaza Del Pilar","lat":41.657419,"lon":-0.879272,"lineas":["29","Ci3"]},"660":{"nombre":"P. Echegaray Y Caballero / Puente Del Pilar","lat":41.654078,"lon":-0.870488,"lineas":["22"]},"664":{"nombre":"P. Independencia N.º 24","lat":41.650288,"lon":-0.883001,"lineas":["21","38"]},"666":{"nombre":"P. Independencia N.º 25","lat":41.650253,"lon":-0.882692,"lineas":["21","38"]},"669":{"nombre":"P. Pamplona N.º 4 / Plaza Paraiso","lat":41.64837,"lon":-0.886485,"lineas":["21","33","38","N3","N4","N6"]},"670":{"nombre":"P. Infantes De  España N.º 1 / Vía Ibérica","lat":41.627287,"lon":-0.907838,"lineas":["58"]},"671":{"nombre":"P. Reyes De Aragón N.º 14","lat":41.622157,"lon":-0.904578,"lineas":["58"]},"672":{"nombre":"P. Infantes De España / Ies V. Del Pilar","lat":41.624644,"lon":-0.906906,"lineas":["58"]},"673":{"nombre":"P. Mª Agustín N.º 7 / Puerta Del Carmen","lat":41.650106,"lon":-0.888677,"lineas":["21","51"]},"674":{"nombre":"P. Mª Agustín N.º 12 / C.M.E. Ramón Y Cajal","lat":41.650856,"lon":-0.889544,"lineas":["21","22","23","51"]},"675":{"nombre":"P. María Agustín N.º 26 / Edif. Pignatelli","lat":41.651998,"lon":-0.891216,"lineas":["21","22","23","51"]},"676":{"nombre":"P. María Agustín N.º 37","lat":41.651443,"lon":-0.891026,"lineas":["21","22","23","51"]},"678":{"nombre":"P. María Agustín N.º 62","lat":41.655565,"lon":-0.893554,"lineas":["23"]},"679":{"nombre":"P. María Agustín N.º 67","lat":41.654853,"lon":-0.893704,"lineas":["21","23","31","51"]},"681":{"nombre":"P. Pamplona N.º 1 / Plaza Paraíso","lat":41.648062,"lon":-0.88664,"lineas":["33","34","38","N3"]},"682":{"nombre":"P. Pamplona / Puerta Del Carmen","lat":41.649347,"lon":-0.887153,"lineas":["22","34","51","N2"]},"684":{"nombre":"P. Mariano Renovales N.º 10","lat":41.635599,"lon":-0.893356,"lineas":["42","Ci1"]},"685":{"nombre":"P. Mariano Renovales / Av. De Los Bearneses","lat":41.634984,"lon":-0.893064,"lineas":["42","Ci2"]},"686":{"nombre":"P. Infantes De España N.º 6","lat":41.622268,"lon":-0.905227,"lineas":["58"]},"687":{"nombre":"P. Reyes De Aragon N.º 18 / Ies V. Del Pilar","lat":41.624645,"lon":-0.906475,"lineas":["58"]},"688":{"nombre":"P. Reyes De Aragón N.º 24","lat":41.627027,"lon":-0.907298,"lineas":["58"]},"689":{"nombre":"P. Ruiseñores N.º 39","lat":41.636492,"lon":-0.889011,"lineas":["Ci2"]},"690":{"nombre":"P. De Sagasta N.º 11 / Bolonia","lat":41.643554,"lon":-0.885809,"lineas":["23","33","34","N5"]},"691":{"nombre":"P. De Sagasta N.º 14 / Plaza Paraiso","lat":41.645719,"lon":-0.885864,"lineas":["23","33","34"]},"692":{"nombre":"P. De Sagasta N.º 31 / Av. Tenor Fleta","lat":41.641564,"lon":-0.8861,"lineas":["33","34","N5"]},"693":{"nombre":"P. De Sagasta N.º 32 / Miguel De Cervantes","lat":41.643672,"lon":-0.886133,"lineas":["33","34"]},"695":{"nombre":"P. De Sagasta N.º 51 / Cno. De Las Torres","lat":41.639645,"lon":-0.886179,"lineas":["31","33","34","Ci2","N5"]},"696":{"nombre":"P. De Sagasta N.º 62 / Moncasi","lat":41.640659,"lon":-0.886614,"lineas":["31","33","34"]},"697":{"nombre":"Glorieta De Sasera","lat":41.645691,"lon":-0.885471,"lineas":["23","33","34","N5"]},"698":{"nombre":"P. De Teruel N.º 24","lat":41.648548,"lon":-0.891198,"lineas":["35","38","N4","N6"]},"699":{"nombre":"P. Tierno Galván N.º 30","lat":41.630445,"lon":-0.881251,"lineas":["23","N5"]},"700":{"nombre":"P. Tierno Galván / Honorio García Condoy","lat":41.632643,"lon":-0.882194,"lineas":["23","N5"]},"702":{"nombre":"P. Echegaray Y Caballero / Postigo Del Ebro","lat":41.658334,"lon":-0.886116,"lineas":["36"]},"703":{"nombre":"P. Echegaray Y Caballero Fte. R. Celma","lat":41.658843,"lon":-0.889816,"lineas":["36"]},"704":{"nombre":"Puente De La Unión / P. Echegaray Y Caballero","lat":41.651395,"lon":-0.864206,"lineas":["44"]},"705":{"nombre":"Camino Puente Virrey / P. Remacha","lat":41.638901,"lon":-0.87397,"lineas":["Ci4"]},"706":{"nombre":"Av. De América / 3er Cinturón","lat":41.625277,"lon":-0.88712,"lineas":["34"]},"707":{"nombre":"Plaza Aragón N.º 1","lat":41.648647,"lon":-0.884251,"lineas":["22","30","32","35","N1","N5"]},"710":{"nombre":"Plaza Aragón / Capitania","lat":41.648699,"lon":-0.88467,"lineas":["22","32","35","40","N1","N2","N7"]},"712":{"nombre":"Plaza Del Portillo","lat":41.655537,"lon":-0.892094,"lineas":["21","51"]},"714":{"nombre":"Conde De Aranda / Plaza Del Portillo","lat":41.655851,"lon":-0.892228,"lineas":["32","33","34","52","N3"]},"715":{"nombre":"Plaza Diego Velazquez / Parque Pignatelli","lat":41.638467,"lon":-0.88651,"lineas":["Ci2"]},"716":{"nombre":"P. Fernando El Católico N.º 70","lat":41.63828,"lon":-0.897668,"lineas":["42","Ci1"]},"719":{"nombre":"Plaza De España","lat":41.651918,"lon":-0.880662,"lineas":["22","30","32","35","N1","N5"]},"720":{"nombre":"Plaza De España","lat":41.652008,"lon":-0.880843,"lineas":["22","32","35","40","N1","N2","N7"]},"722":{"nombre":"Ctra. Castellón / P. Ind. San Valero N.º 2","lat":41.615127,"lon":-0.840457,"lineas":["25","N6"]},"723":{"nombre":"Av. De La Constitución (La Cartuja)","lat":41.606527,"lon":-0.825998,"lineas":["25","N6"]},"729":{"nombre":"Plaza Europa","lat":41.659616,"lon":-0.892853,"lineas":["34","42","Ci4","N2"]},"730":{"nombre":"Plaza De Las Canteras","lat":41.631463,"lon":-0.886139,"lineas":["33","34","39","C1"]},"732":{"nombre":"Plaza Mayor","lat":41.694204,"lon":-0.901213,"lineas":["43"]},"735":{"nombre":"P. Fernando El Católico N.º 31","lat":41.641606,"lon":-0.894079,"lineas":["N4"]},"741":{"nombre":"Plaza San Miguel N.º 5","lat":41.649796,"lon":-0.876345,"lineas":["38"]},"743":{"nombre":"P. Pamplona N.º 12","lat":41.649006,"lon":-0.88691,"lineas":["23","25","N7"]},"744":{"nombre":"Plaza San Miguel","lat":41.649998,"lon":-0.876028,"lineas":["29","38","39","40"]},"745":{"nombre":"Plaza San Miguel","lat":41.64992,"lon":-0.876269,"lineas":["29","30","39","N5"]},"748":{"nombre":"Francisca Millán Serrano / M.A Blanco","lat":41.640516,"lon":-0.931528,"lineas":["36","38","N3"]},"749":{"nombre":"Ramiro I De Aragón N.º 24","lat":41.654501,"lon":-0.916418,"lineas":["32"]},"750":{"nombre":"Ramón J. Sender N.º 4","lat":41.656213,"lon":-0.918844,"lineas":["22","32"]},"753":{"nombre":"Rodrigo Rebolledo N.º 7","lat":41.646283,"lon":-0.865057,"lineas":["22","30","Ci3","N5"]},"754":{"nombre":"Rodrigo Rebolledo N.º 33","lat":41.646033,"lon":-0.862497,"lineas":["22","Ci3"]},"755":{"nombre":"Rodrigo Rebolledo / Fray Luis Urbano","lat":41.645676,"lon":-0.858883,"lineas":["22"]},"756":{"nombre":"Villa De Pau N.º 2","lat":41.629252,"lon":-0.880004,"lineas":["23"]},"757":{"nombre":"Villa De Pau N.º 14","lat":41.627893,"lon":-0.880347,"lineas":["23"]},"758":{"nombre":"Villa De Pau N.º 19","lat":41.627745,"lon":-0.878911,"lineas":["23","42","N5"]},"759":{"nombre":"Villa De Pau / Puente","lat":41.629361,"lon":-0.878647,"lineas":["23"]},"760":{"nombre":"Salvador Minguijón N.º 10","lat":41.645775,"lon":-0.861932,"lineas":["30","44","Ci4","N5"]},"763":{"nombre":"Salvador Minguijón N.º 40","lat":41.648937,"lon":-0.861279,"lineas":["44","Ci4","N5"]},"765":{"nombre":"San Alberto Magno / C.S. Oliver","lat":41.652172,"lon":-0.930033,"lineas":["21","53"]},"766":{"nombre":"San Antonio De Padua / Plaza Gallur","lat":41.626527,"lon":-0.876858,"lineas":["31","42"]},"768":{"nombre":"San Juan De La Cruz N.º 2","lat":41.641573,"lon":-0.893485,"lineas":["Ci4"]},"769":{"nombre":"San Juan De La Cruz N.º 26","lat":41.640952,"lon":-0.891297,"lineas":["Ci4"]},"770":{"nombre":"Av. San Juan De La Peña N.º 4","lat":41.661349,"lon":-0.873157,"lineas":["35"]},"771":{"nombre":"Av. San Juan De La Peña N.º 29","lat":41.663868,"lon":-0.872179,"lineas":["35","36","N2"]},"772":{"nombre":"Av. San Juan De La Peña / Más De Las Matas","lat":41.664793,"lon":-0.871538,"lineas":["35"]},"775":{"nombre":"Av. San Juan De La Peña N.º 123","lat":41.670038,"lon":-0.871547,"lineas":["35","36","N2"]},"777":{"nombre":"Av. San Juan De La Peña N.º 167 / Del Somport","lat":41.674091,"lon":-0.871369,"lineas":["35","N2"]},"779":{"nombre":"Av. San Juan De La Peña N.º 182","lat":41.675604,"lon":-0.87111,"lineas":["35"]},"783":{"nombre":"Av. San Juan De La Peña N.º 144","lat":41.670581,"lon":-0.871214,"lineas":["35"]},"785":{"nombre":"San Viator N.º 42","lat":41.626565,"lon":-0.875036,"lineas":["31"]},"787":{"nombre":"San Vicente De Paúl N.º 3","lat":41.651259,"lon":-0.876878,"lineas":["21","22","32"]},"788":{"nombre":"San Vicente De Paúl N.º 27","lat":41.653209,"lon":-0.875176,"lineas":["21","22","32"]},"790":{"nombre":"San Vicente De Paúl N.º 47","lat":41.654767,"lon":-0.873797,"lineas":["21","22","32"]},"791":{"nombre":"Sancho Lezcano / Av. San José","lat":41.633715,"lon":-0.88131,"lineas":["40"]},"792":{"nombre":"Casanova N.º 3","lat":41.655589,"lon":-0.904379,"lineas":["42"]},"794":{"nombre":"Santander N.º 27","lat":41.649077,"lon":-0.897353,"lineas":["22","N6"]},"795":{"nombre":"Santander N.º 34","lat":41.649197,"lon":-0.897251,"lineas":["22","N6"]},"796":{"nombre":"Sixto Celorrio N.º 58","lat":41.661193,"lon":-0.875827,"lineas":["36"]},"798":{"nombre":"Sobrarbe N.º 3","lat":41.658748,"lon":-0.874448,"lineas":["35","36","N2"]},"799":{"nombre":"Sobrarbe N.º 24","lat":41.660067,"lon":-0.873768,"lineas":["35"]},"800":{"nombre":"Sobrarbe N.º 55","lat":41.660507,"lon":-0.873748,"lineas":["35","36","N2"]},"801":{"nombre":"León Moyano N.º 19","lat":41.626891,"lon":-0.877319,"lineas":["42"]},"803":{"nombre":"Tomás Bretón N.º 12","lat":41.643907,"lon":-0.894301,"lineas":["Ci3"]},"806":{"nombre":"Tulipán N.º 67","lat":41.638138,"lon":-0.933063,"lineas":["38"]},"808":{"nombre":"Unceta N.º 33","lat":41.652138,"lon":-0.901849,"lineas":["Ci3"]},"809":{"nombre":"Unceta N.º 101","lat":41.649307,"lon":-0.900555,"lineas":["Ci3"]},"811":{"nombre":"Valle De Broto N.º 18 / Av. Salvador Allende","lat":41.666772,"lon":-0.878084,"lineas":["29","60","Ci2"]},"812":{"nombre":"Valle De Broto / Campus Digital","lat":41.663179,"lon":-0.88827,"lineas":["23","42","N2"]},"813":{"nombre":"Valle De Broto / Av. José Atarés","lat":41.663302,"lon":-0.888633,"lineas":["23","42"]},"816":{"nombre":"Valle De Broto / Parque Del Tío Jorge","lat":41.666349,"lon":-0.878785,"lineas":["29","50","60","Ci1","N7"]},"817":{"nombre":"Valle De Broto / Virginia Woolf","lat":41.664511,"lon":-0.887393,"lineas":["23","42"]},"821":{"nombre":"Vía Hispanidad / Duquesa Villahermosa","lat":41.644345,"lon":-0.915835,"lineas":["38","N6"]},"822":{"nombre":"Vía Hispanidad / Villa De Andorra","lat":41.645103,"lon":-0.916364,"lineas":["22","53"]},"823":{"nombre":"Vía Hispanidad N.º 73 / Nuestra Señora De Los ángeles","lat":41.644087,"lon":-0.916394,"lineas":["38"]},"824":{"nombre":"Vía Hispanidad N.º 73","lat":41.645012,"lon":-0.916646,"lineas":["22","53"]},"825":{"nombre":"Vía Hispanidad N.º 77","lat":41.646234,"lon":-0.917173,"lineas":["22","53"]},"826":{"nombre":"Vía Hispanidad N.º 80","lat":41.64639,"lon":-0.916918,"lineas":["22","53"]},"827":{"nombre":"Vía Hispanidad N.º 83","lat":41.648018,"lon":-0.917973,"lineas":["22","53"]},"828":{"nombre":"Vía Hispanidad N.º 99","lat":41.651833,"lon":-0.919497,"lineas":["22"]},"829":{"nombre":"Vía Hispanidad N.º 100 / Los Enlaces","lat":41.648791,"lon":-0.918013,"lineas":["22","53"]},"830":{"nombre":"Vía Hispanidad N.º 142","lat":41.656076,"lon":-0.920724,"lineas":["52"]},"832":{"nombre":"Edif. Seminario / Conservatorio","lat":41.636124,"lon":-0.912285,"lineas":["35","42"]},"835":{"nombre":"Rallo Lahoz / Vía Hispanidad","lat":41.655585,"lon":-0.921544,"lineas":["52"]},"837":{"nombre":"Tomás Gabasa / Plaza De La Ermita","lat":41.631631,"lon":-0.911227,"lineas":["42"]},"838":{"nombre":"Av. De Montañana / Rotonda I.E.S. Itaca","lat":41.673088,"lon":-0.832275,"lineas":["28","N7"]},"839":{"nombre":"Vía Hispanidad N.º 110","lat":41.64976,"lon":-0.917935,"lineas":["33"]},"841":{"nombre":"Vía Ibérica N.º 20 / Colegio","lat":41.627268,"lon":-0.908995,"lineas":["57","N4"]},"843":{"nombre":"Vía Ibérica N.º 33 / P. Infantes De España","lat":41.627377,"lon":-0.908641,"lineas":["N4"]},"844":{"nombre":"Vía Ibérica N.º 38 / Argualas","lat":41.625612,"lon":-0.910348,"lineas":["57","N4"]},"849":{"nombre":"Vía Pignatelli N.º 7","lat":41.633084,"lon":-0.885689,"lineas":["42"]},"850":{"nombre":"Vía Pignatelli N.º 61","lat":41.633508,"lon":-0.889956,"lineas":["42"]},"851":{"nombre":"Vía Univérsitas N.º 10","lat":41.645233,"lon":-0.906959,"lineas":["38","42","Ci1"]},"852":{"nombre":"Vía Univérsitas N.º 17","lat":41.645008,"lon":-0.907014,"lineas":["22","42","Ci2"]},"853":{"nombre":"Vía Univérsitas N.º 81","lat":41.651777,"lon":-0.910266,"lineas":["42","Ci2"]},"856":{"nombre":"Vía Univérsitas / Av. De Madrid","lat":41.651749,"lon":-0.910036,"lineas":["42","Ci1"]},"857":{"nombre":"Vicente Blanco / Centro Comercial","lat":41.658319,"lon":-0.919678,"lineas":["22","32"]},"858":{"nombre":"Villa De Ansó / Antigua Prisión","lat":41.628042,"lon":-0.886865,"lineas":["33"]},"859":{"nombre":"Villa De Ansó / Fray Julián Garcés","lat":41.628151,"lon":-0.887496,"lineas":["39"]},"860":{"nombre":"Villa De Ansó / Avenida De América","lat":41.627929,"lon":-0.886597,"lineas":["31","42","C4"]},"861":{"nombre":"Violante De Hungría N.º 5","lat":41.638743,"lon":-0.900933,"lineas":["35","53","Ci2"]},"862":{"nombre":"Violante De Hungría / Facultad De Ciencias Sociales","lat":41.642281,"lon":-0.905614,"lineas":["35"]},"863":{"nombre":"Violante De Hungría / Palacio De Deportes","lat":41.639859,"lon":-0.902625,"lineas":["35","53","Ci1"]},"864":{"nombre":"Violante De Hungría / Escuela De Idiomas","lat":41.64201,"lon":-0.905112,"lineas":["35","42","Ci1"]},"865":{"nombre":"Violante De Hungría / Palacio De Deportes","lat":41.640269,"lon":-0.903908,"lineas":["Ci2"]},"866":{"nombre":"Zafiro / Muza Ben Zeya","lat":41.623046,"lon":-0.875897,"lineas":["23","31","C4","N5"]},"867":{"nombre":"Zaragoza N.º 54","lat":41.690964,"lon":-0.896258,"lineas":["43"]},"868":{"nombre":"Zaragoza / El Bar","lat":41.689403,"lon":-0.893836,"lineas":["43"]},"869":{"nombre":"Zaragoza N.º 32","lat":41.689637,"lon":-0.894166,"lineas":["43"]},"870":{"nombre":"Zaragoza N.º 14","lat":41.688746,"lon":-0.891984,"lineas":["43"]},"871":{"nombre":"Zaragoza / Torre Genoveva","lat":41.68833,"lon":-0.891268,"lineas":["43"]},"872":{"nombre":"Zaragoza / Antigua Báscula","lat":41.690701,"lon":-0.896188,"lineas":["43"]},"873":{"nombre":"Zaragoza N.º 103 / Colegio","lat":41.692634,"lon":-0.898286,"lineas":["43"]},"874":{"nombre":"Zaragoza N.º 94 / Colegio","lat":41.692601,"lon":-0.898056,"lineas":["43"]},"878":{"nombre":"Fray Julián Garcés N.º 18","lat":41.630959,"lon":-0.88659,"lineas":["31","42"]},"879":{"nombre":"Juan De La Cierva N.º 25","lat":41.669493,"lon":-0.860797,"lineas":["44","N7"]},"880":{"nombre":"Complejo Funerario","lat":41.620602,"lon":-0.888654,"lineas":["C1"]},"881":{"nombre":"Av. De Montañana /  Ies ítaca","lat":41.672715,"lon":-0.831756,"lineas":["28","60","N7"]},"882":{"nombre":"Cuarta Avenida N.º 35","lat":41.625207,"lon":-0.874734,"lineas":["31"]},"883":{"nombre":"Camino De Los Molinos N.º 150","lat":41.686337,"lon":-0.86577,"lineas":["29","50","N7"]},"884":{"nombre":"Monte Perdido N.º 4","lat":41.671151,"lon":-0.872739,"lineas":["36"]},"886":{"nombre":"Villa De Pau / Parque De La Paz","lat":41.629118,"lon":-0.878265,"lineas":["23","N5"]},"887":{"nombre":"Fray Julián Garcés / Rne","lat":41.623551,"lon":-0.889544,"lineas":["34","C1"]},"888":{"nombre":"Fray Julian Garces / Cementerio","lat":41.62212,"lon":-0.889733,"lineas":["34","C1"]},"889":{"nombre":"Concepción / Miguel Servet","lat":41.647615,"lon":-0.874777,"lineas":["29"]},"891":{"nombre":"Sigües / Alcalá De La Selva","lat":41.646142,"lon":-0.912755,"lineas":["33"]},"892":{"nombre":"De La Mesta / Martín Díez De Aux","lat":41.629736,"lon":-0.945002,"lineas":["41"]},"893":{"nombre":"Camino Del Pilón / Ibón De Armeña","lat":41.658888,"lon":-0.933911,"lineas":["52","53"]},"894":{"nombre":"Camino Del Pilón / Lagos De Coronas","lat":41.658781,"lon":-0.934205,"lineas":["21","52","53","N3"]},"895":{"nombre":"Camino De Los Molinos N.º 54","lat":41.67815,"lon":-0.868113,"lineas":["50"]},"896":{"nombre":"Camino De Los Molinos Fte. N.º 165","lat":41.683895,"lon":-0.866558,"lineas":["50"]},"897":{"nombre":"Av. San Gregorio / Olímpica","lat":41.690027,"lon":-0.863307,"lineas":["50"]},"898":{"nombre":"Camino De Los Molinos N.º 165","lat":41.683858,"lon":-0.866733,"lineas":["29","50","N7"]},"899":{"nombre":"Camino De Los Molinos N.º 75","lat":41.678156,"lon":-0.868293,"lineas":["50","N7"]},"901":{"nombre":"Fanlo N.º 12","lat":41.633302,"lon":-0.915691,"lineas":["57"]},"902":{"nombre":"Gastón De Bearne / Residencia","lat":41.633396,"lon":-0.913878,"lineas":["57"]},"903":{"nombre":"Gastón De Bearne N.º 17","lat":41.630158,"lon":-0.911323,"lineas":["57"]},"904":{"nombre":"Embarcadero N.º 28","lat":41.630267,"lon":-0.90916,"lineas":["42","57"]},"905":{"nombre":"Vía Ibérica / Hospital Militar","lat":41.630825,"lon":-0.905911,"lineas":["42","57","58","N4"]},"906":{"nombre":"Vía Ibérica N.º 2","lat":41.630936,"lon":-0.906145,"lineas":["57","58","N4"]},"907":{"nombre":"Argualas N.º 18","lat":41.626891,"lon":-0.913918,"lineas":["57"]},"908":{"nombre":"Marcelino álvarez N.º 55","lat":41.62938,"lon":-0.914347,"lineas":["57"]},"909":{"nombre":"Fanlo / Encinacorba","lat":41.630952,"lon":-0.917108,"lineas":["57"]},"910":{"nombre":"Camino De Los Molinos N.º 150","lat":41.686636,"lon":-0.865534,"lineas":["50"]},"911":{"nombre":"Betore Bergua N.º 1","lat":41.655165,"lon":-0.856547,"lineas":["50"]},"912":{"nombre":"Lagos De Coronas N.º 39","lat":41.652006,"lon":-0.933431,"lineas":["21","53"]},"913":{"nombre":"Lagos De Coronas / Campo De Fútbol","lat":41.654676,"lon":-0.93428,"lineas":["21","53"]},"914":{"nombre":"Lagos De Coronas / Ibón De Astún","lat":41.657293,"lon":-0.933476,"lineas":["53"]},"916":{"nombre":"Lagos De Coronas / La Camisera","lat":41.654556,"lon":-0.934454,"lineas":["21","53","N3"]},"950":{"nombre":"Orión N.º 6","lat":41.642057,"lon":-0.933816,"lineas":["N3"]},"951":{"nombre":"Ronda Ibón De Plan / Supermercado","lat":41.656629,"lon":-0.937638,"lineas":["N3"]},"952":{"nombre":"Ronda Ibón De Plan N.º 20","lat":41.650484,"lon":-0.9348,"lineas":["N3"]},"984":{"nombre":"Av. De Montañana / Torre Cortés","lat":41.679528,"lon":-0.829652,"lineas":["28","N7"]},"985":{"nombre":"Plaza Emperador Carlos V","lat":41.638091,"lon":-0.898976,"lineas":["35"]},"986":{"nombre":"La Fragua N.º 15","lat":41.687239,"lon":-0.877829,"lineas":["35","N2"]},"993":{"nombre":"La Fragua / Parque Tapices De Goya","lat":41.689214,"lon":-0.877759,"lineas":["35","N2"]},"995":{"nombre":"P.I Tchaikovsky / J. Strauss","lat":41.634471,"lon":-0.942989,"lineas":["41","54","N4"]},"996":{"nombre":"P.I Tchaikovsky / G.F.Haendel","lat":41.633898,"lon":-0.942716,"lineas":["41","54"]},"997":{"nombre":"De La Mesta / Avenida De La Ilustración","lat":41.629631,"lon":-0.941754,"lineas":["41"]},"998":{"nombre":"Av. De La Ilustración / E. De Aragón","lat":41.627954,"lon":-0.941844,"lineas":["41"]},"999":{"nombre":"Ermesinda De Aragón","lat":41.630202,"lon":-0.942702,"lineas":["41"]},"1000":{"nombre":"Plaza Emperador Carlos V / Intercambiador","lat":41.638007,"lon":-0.898679,"lineas":["53"]},"1003":{"nombre":"Av. De Cataluña / Plaza Mozart","lat":41.662622,"lon":-0.864266,"lineas":["28","32","39","44","50","60","N1","N7"]},"1005":{"nombre":"Hospital Royo Villanova / Urgencias","lat":41.692048,"lon":-0.862444,"lineas":["50"]},"1009":{"nombre":"Mesones De Isuela","lat":41.627641,"lon":-0.891094,"lineas":["39"]},"1010":{"nombre":"Cuarte / Castillo De Loarre","lat":41.629082,"lon":-0.89106,"lineas":["39"]},"1011":{"nombre":"Av. De Navarra / Centro Comercial","lat":41.658914,"lon":-0.91932,"lineas":["52"]},"1012":{"nombre":"Av. Peñaflor N.º 106","lat":41.761159,"lon":-0.795176,"lineas":["28","N7"]},"1013":{"nombre":"Av. Peñaflor N.º 109","lat":41.761083,"lon":-0.795351,"lineas":["28","N7"]},"1014":{"nombre":"Av. Gómez Laguna / Parque De La Razón","lat":41.626941,"lon":-0.920571,"lineas":["55"]},"1025":{"nombre":"P. De Los Olvidados / Luces De La Ciudad","lat":41.621479,"lon":-0.91953,"lineas":["55","N4"]},"1026":{"nombre":"Belle Epoque / Colegio","lat":41.624582,"lon":-0.918616,"lineas":["55","N4"]},"1030":{"nombre":"Av. Cesáreo Alierta / C.D.M. La Granja","lat":41.637368,"lon":-0.868621,"lineas":["25"]},"1031":{"nombre":"Estación Delicias / Acceso Salidas","lat":41.659023,"lon":-0.909577,"lineas":["34","51","Ci1","Ci3"]},"1033":{"nombre":"L.V Beethoven N.º 20 / Supermercado","lat":41.634658,"lon":-0.945526,"lineas":["41","54","N4"]},"1034":{"nombre":"L.V Beethoven / J.Turina","lat":41.636869,"lon":-0.94556,"lineas":["41","54","N4"]},"1035":{"nombre":"L.V Beethoven / F. Chopin","lat":41.638702,"lon":-0.946581,"lineas":["41","54","N4"]},"1036":{"nombre":"Johan Sebastian Bach / Clínica Montecanal","lat":41.63944,"lon":-0.948581,"lineas":["41","54","N4"]},"1037":{"nombre":"Johan Sebastian Bach N.º 65","lat":41.638397,"lon":-0.946674,"lineas":["41","54","N4"]},"1038":{"nombre":"Johan Sebastian Bach N.º 53","lat":41.636616,"lon":-0.945989,"lineas":["41","54","N4"]},"1039":{"nombre":"Johan Sebastian Bach N.º 25 / Supermercado","lat":41.634584,"lon":-0.945948,"lineas":["41","54","N4"]},"1040":{"nombre":"Plaza De Las Canteras","lat":41.631578,"lon":-0.885903,"lineas":["C4"]},"1041":{"nombre":"Cuarta Avenida N.º 6","lat":41.624678,"lon":-0.880637,"lineas":["C4"]},"1042":{"nombre":"Zafiro N.º 40","lat":41.622131,"lon":-0.875994,"lineas":["23","31","C4","N5"]},"1043":{"nombre":"Puerto Venecia / Teatro Malibrán","lat":41.608667,"lon":-0.890048,"lineas":["31","C4"]},"1066":{"nombre":"Av .Gómez Laguna / Urbanización La Floresta","lat":41.639594,"lon":-0.918175,"lineas":["41"]},"1067":{"nombre":"Av. Gómez Laguna Fte Hospital","lat":41.628684,"lon":-0.922922,"lineas":["41"]},"1069":{"nombre":"Av. Gómez Laguna / Hospital","lat":41.629051,"lon":-0.922853,"lineas":["41"]},"1070":{"nombre":"Av. Gómez Laguna / Depósitos","lat":41.639349,"lon":-0.917649,"lineas":["41"]},"1071":{"nombre":"Plaza Mozart","lat":41.662685,"lon":-0.865128,"lineas":["21"]},"1072":{"nombre":"Muel N.º 11","lat":41.65957,"lon":-0.869163,"lineas":["21","32"]},"1074":{"nombre":"Salvador Minguijón N.º 64","lat":41.650445,"lon":-0.860982,"lineas":["30","Ci4"]},"1075":{"nombre":"María Zambrano N.º 60","lat":41.676798,"lon":-0.889307,"lineas":["43","44","N2"]},"1076":{"nombre":"Violante De Hungría / Av. Gómez Laguna","lat":41.642469,"lon":-0.905788,"lineas":["42","Ci2"]},"1079":{"nombre":"Hernán Cortés N.º 9","lat":41.649031,"lon":-0.888566,"lineas":["38","41"]},"1084":{"nombre":"Ctra. Castellón / Pol. Emp. Miraflores","lat":41.613276,"lon":-0.838124,"lineas":["25","N6"]},"1092":{"nombre":"P. Pamplona N.º 5","lat":41.648337,"lon":-0.886832,"lineas":["21","51","N6"]},"1093":{"nombre":"Los Pájaros","lat":41.621079,"lon":-0.922854,"lineas":["N4"]},"1095":{"nombre":"Un Américano En París N.º 17","lat":41.622408,"lon":-0.92892,"lineas":["N4"]},"1096":{"nombre":"La Ventana Indiscreta N.º 6","lat":41.62045,"lon":-0.923771,"lineas":["56","N4"]},"1097":{"nombre":"Estación Delicias / Acceso Estación Autobuses","lat":41.659431,"lon":-0.911146,"lineas":["34","51","Ci1","Ci3"]},"1099":{"nombre":"Arquitecto La Figuera / Zalmedina","lat":41.660318,"lon":-0.878964,"lineas":["50","Ci4"]},"1100":{"nombre":"Camino Del Pilón N.º 141","lat":41.658877,"lon":-0.944415,"lineas":["52","53","N3"]},"1101":{"nombre":"Av. Gómez Laguna / Colegio","lat":41.625209,"lon":-0.917287,"lineas":["N4"]},"1106":{"nombre":"Av. Expo 2008 / Av. Pablo Gargallo","lat":41.662318,"lon":-0.907949,"lineas":["34","51","Ci2","Ci4"]},"1107":{"nombre":"Av. Expo 2008 / Supermercado","lat":41.662415,"lon":-0.907419,"lineas":["Ci1"]},"1108":{"nombre":"Av. De Ranillas / Parque Empresarial","lat":41.670945,"lon":-0.900824,"lineas":["Ci1"]},"1118":{"nombre":"Camino Fuente De La Junquera Fte. Colegio","lat":41.619278,"lon":-0.907478,"lineas":["58"]},"1119":{"nombre":"Camino Fuente De La Junquera N.º 72","lat":41.617297,"lon":-0.909565,"lineas":["58"]},"1120":{"nombre":"Fuente De La Junquera","lat":41.614592,"lon":-0.914243,"lineas":["58"]},"1121":{"nombre":"Camino Fuente De La Junquera / Colegio","lat":41.61925,"lon":-0.907388,"lineas":["58"]},"1122":{"nombre":"Miguel Servet / Camino Enmedio","lat":41.632668,"lon":-0.860073,"lineas":["25","38","N6"]},"1123":{"nombre":"Francisco Rallo Lahoz / Anillo Verde","lat":41.655983,"lon":-0.925266,"lineas":["52"]},"1126":{"nombre":"Anillo Verde / Colegio","lat":41.656774,"lon":-0.924441,"lineas":["52"]},"1128":{"nombre":"Av. De Ranillas  / Palacio De Congresos","lat":41.669652,"lon":-0.906951,"lineas":["Ci1"]},"1131":{"nombre":"Diego Espés","lat":41.638372,"lon":-0.863553,"lineas":["44"]},"1132":{"nombre":"Camino Cabaldós","lat":41.640353,"lon":-0.869021,"lineas":["44"]},"1135":{"nombre":"Francisco De Quevedo","lat":41.641074,"lon":-0.865915,"lineas":["44"]},"1138":{"nombre":"Principado De Morea","lat":41.637114,"lon":-0.866557,"lineas":["44"]},"1139":{"nombre":"La Diligencia","lat":41.62474,"lon":-0.93833,"lineas":["54","N4"]},"1140":{"nombre":"Av. Pablo Gargallo N.º 116","lat":41.662273,"lon":-0.904671,"lineas":["34","Ci4"]},"1142":{"nombre":"Camino De Las Torres / Cdm Alberto Maestro","lat":41.649372,"lon":-0.865259,"lineas":["Ci1"]},"1143":{"nombre":"Camino De Las Torres N.º 4","lat":41.647533,"lon":-0.871945,"lineas":["Ci1"]},"1144":{"nombre":"Camino De Las Torres N.º 3","lat":41.647307,"lon":-0.871666,"lineas":["Ci2"]},"1145":{"nombre":"Camino De Las Torres / Silvestre Pérez","lat":41.64838,"lon":-0.867759,"lineas":["Ci2"]},"1146":{"nombre":"Camino De Las Torres / Cdm Alberto Maestro","lat":41.649467,"lon":-0.864554,"lineas":["Ci2"]},"1147":{"nombre":"Julián Sanz Ibáñez N.º 41","lat":41.651813,"lon":-0.914994,"lineas":["36"]},"1148":{"nombre":"Julián Sanz Ibáñez N.º 13","lat":41.652452,"lon":-0.912162,"lineas":["36"]},"1152":{"nombre":"Marcelino álvarez / Residencia","lat":41.630063,"lon":-0.916727,"lineas":["57"]},"1155":{"nombre":"Pablo Ruiz Picasso / G.Gómez Avellaneda","lat":41.672952,"lon":-0.891717,"lineas":["Ci2"]},"1156":{"nombre":"Av. Gómez Laguna / Punto Limpio","lat":41.633474,"lon":-0.924393,"lineas":["41"]},"1157":{"nombre":"Av. Gómez Laguna / Cooperativa Taxi","lat":41.633421,"lon":-0.923987,"lineas":["41"]},"1158":{"nombre":"Av. De Ranillas / Av. José Atarés","lat":41.671649,"lon":-0.899099,"lineas":["Ci2"]},"1159":{"nombre":"Av. De Ranillas / Parque Del Agua","lat":41.667891,"lon":-0.909319,"lineas":["Ci2"]},"1160":{"nombre":"Av. De Ranillas / Puente Tercer Milenio","lat":41.668064,"lon":-0.908965,"lineas":["Ci1"]},"1161":{"nombre":"Av. De Ranillas / Ciudad De La Justicia","lat":41.671332,"lon":-0.898847,"lineas":["Ci1"]},"1162":{"nombre":"Av. Policía Local / G. Piranesi","lat":41.618668,"lon":-0.876874,"lineas":["23","31","C4","N5"]},"1163":{"nombre":"Av. Tiziano / G.Piranesi","lat":41.618829,"lon":-0.876144,"lineas":["23","31","C4","N5"]},"1164":{"nombre":"Ceuta / Colegio","lat":41.632951,"lon":-0.874317,"lineas":["40"]},"1165":{"nombre":"Nuestra Señora De Los ángeles N.º 20","lat":41.643292,"lon":-0.919295,"lineas":["38"]},"1166":{"nombre":"Nuestra Señora De Los ángeles N.º 7","lat":41.643215,"lon":-0.919086,"lineas":["38"]},"1168":{"nombre":"Av. De Ranillas / Torre Del Agua","lat":41.670521,"lon":-0.904392,"lineas":["Ci2"]},"1171":{"nombre":"Teatro Malibran N.º 11","lat":41.610124,"lon":-0.889603,"lineas":["31","C4"]},"1173":{"nombre":"Viridiana","lat":41.617206,"lon":-0.924179,"lineas":["56"]},"1175":{"nombre":"Ciudadano Kane / C.S. Valdespartera","lat":41.621359,"lon":-0.923929,"lineas":["56"]},"1176":{"nombre":"Cantando Bajo La Lluvia","lat":41.623162,"lon":-0.928209,"lineas":["N4"]},"1177":{"nombre":"Un Américano En París N.º 47","lat":41.623233,"lon":-0.932081,"lineas":["N4"]},"1178":{"nombre":"San Nicolo","lat":41.608658,"lon":-0.884064,"lineas":["31","C4"]},"1179":{"nombre":"Av. Isla De Murano / San Nicolo","lat":41.609653,"lon":-0.884366,"lineas":["31","C4"]},"1182":{"nombre":"P. De Los Olvidados / Atraco A Las Tres","lat":41.62274,"lon":-0.918865,"lineas":["55","N4"]},"1184":{"nombre":"Cantando Bajo La Lluvia / Tranvía","lat":41.625009,"lon":-0.935743,"lineas":["54","59"]},"1185":{"nombre":"Martín Díez De Aux Fte. Centro Ocupacional","lat":41.626337,"lon":-0.94094,"lineas":["54"]},"1186":{"nombre":"Ermesinda De Aragón N.º 4","lat":41.631583,"lon":-0.941936,"lineas":["54"]},"1187":{"nombre":"Ermesinda De Aragón N.º 10","lat":41.628063,"lon":-0.942385,"lineas":["54"]},"1188":{"nombre":"Martín Díez De Aux / Centro Ocupacional","lat":41.626175,"lon":-0.940811,"lineas":["54"]},"1189":{"nombre":"Un Americano En París N.º 67","lat":41.624265,"lon":-0.936674,"lineas":["54","59"]},"1190":{"nombre":"Av. De La Ilustración / Gasolinera","lat":41.627257,"lon":-0.923266,"lineas":["41","55"]},"1191":{"nombre":"Av. De La Ilustración / Glorieta Santiago Loren","lat":41.627251,"lon":-0.922824,"lineas":["41","55"]},"1192":{"nombre":"Manhattan","lat":41.622992,"lon":-0.926417,"lineas":["56"]},"1193":{"nombre":"La Ventana Indiscreta N.º 34","lat":41.618492,"lon":-0.920476,"lineas":["56"]},"1194":{"nombre":"La Atalanta / Mi Tío","lat":41.615807,"lon":-0.921922,"lineas":["56"]},"1196":{"nombre":"Doctor Mabuse","lat":41.61894,"lon":-0.924162,"lineas":["56"]},"1198":{"nombre":"Embarcadero / Vía Ibérica","lat":41.629499,"lon":-0.907405,"lineas":["42","57"]},"1200":{"nombre":"Ibón","lat":41.631976,"lon":-0.940499,"lineas":["54"]},"1201":{"nombre":"Ermesinda De Aragón / De La Mesta","lat":41.629979,"lon":-0.942882,"lineas":["54"]},"1203":{"nombre":"Bernardo Ramazzini / Maz","lat":41.685228,"lon":-0.870432,"lineas":["29"]},"1204":{"nombre":"Francisco Rallo Lahoz / Vía Hispanidad","lat":41.655378,"lon":-0.921436,"lineas":["52"]},"1205":{"nombre":"Carnaval De Venecia","lat":41.617695,"lon":-0.873143,"lineas":["23","N5"]},"1206":{"nombre":"Carlo Scarpa","lat":41.617543,"lon":-0.871373,"lineas":["23","N5"]},"1207":{"nombre":"Av. Puente De Los Suspiros / El Campanile","lat":41.618285,"lon":-0.873224,"lineas":["23","N5"]},"1208":{"nombre":"Marqués De La Cadena / Puente De La Unión","lat":41.654677,"lon":-0.861282,"lineas":["44","Ci1"]},"1210":{"nombre":"Av. Isla De Murano / Jardines Reales","lat":41.610272,"lon":-0.887356,"lineas":["31","C4"]},"1213":{"nombre":"Pablo Ruiz Picasso / G.Gómez Avellaneda","lat":41.672627,"lon":-0.891091,"lineas":["Ci1"]},"1214":{"nombre":"Diputados / Aljafería","lat":41.656884,"lon":-0.895486,"lineas":["34"]},"1215":{"nombre":"Patio De Los Naranjos / Faja De Las Flores","lat":41.621686,"lon":-0.947165,"lineas":["59"]},"1216":{"nombre":"Patio De Los Naranjos / Peña Telera","lat":41.623031,"lon":-0.949498,"lineas":["59"]},"1217":{"nombre":"Av. Canal De Izas","lat":41.622174,"lon":-0.951943,"lineas":["59"]},"1218":{"nombre":"P. De Los Arqueros","lat":41.621286,"lon":-0.953267,"lineas":["59"]},"1219":{"nombre":"Refugio De Góriz / Mesa De Los Tres Reyes","lat":41.62372,"lon":-0.954081,"lineas":["59","N4"]},"1220":{"nombre":"Patio De Los Naranjos / Bosque De La Trapa","lat":41.625505,"lon":-0.954827,"lineas":["59","N4"]},"1221":{"nombre":"Patio De Los Naranjos / A. De Medinaceli","lat":41.627619,"lon":-0.959447,"lineas":["59"]},"1223":{"nombre":"Av. Los Cañones De Zaragoza","lat":41.624339,"lon":-0.957704,"lineas":["N4"]},"1224":{"nombre":"Valle De Broto / Intercambiador","lat":41.666322,"lon":-0.886806,"lineas":["42"]},"1225":{"nombre":"Clara Campoamor / Centro Comercial","lat":41.668767,"lon":-0.889522,"lineas":["23"]},"1226":{"nombre":"Prolongacion Jorge Guillen","lat":41.667827,"lon":-0.888192,"lineas":["43"]},"1228":{"nombre":"P. De La Constitución / Patio De La Infanta","lat":41.647304,"lon":-0.884468,"lineas":["25","40","51"]},"1229":{"nombre":"Desayuno Con Diamantes N.º 35","lat":41.620718,"lon":-0.930884,"lineas":["56"]},"1230":{"nombre":"Desayuno Con Diamantes N.º 19","lat":41.62249,"lon":-0.929979,"lineas":["56"]},"1231":{"nombre":"La Lista De Schindler","lat":41.62599,"lon":-0.932195,"lineas":["56","59","N4"]},"1232":{"nombre":"Tomas De Anzano / Colegio","lat":41.627574,"lon":-0.931544,"lineas":["56","59","N4"]},"1233":{"nombre":"La Isla Del Tesoro N.º 51","lat":41.62529,"lon":-0.930616,"lineas":["56"]},"1234":{"nombre":"El Tambor De Hojalata / Colegio","lat":41.61528,"lon":-0.925413,"lineas":["56"]},"1235":{"nombre":"El Acorazado Potemkin N.º 27","lat":41.617178,"lon":-0.927758,"lineas":["56"]},"1236":{"nombre":"Plaza Europa","lat":41.658816,"lon":-0.891843,"lineas":["36","Ci3"]},"1245":{"nombre":"P. Echegaray Y Caballero N.º 80 / Once","lat":41.65792,"lon":-0.883837,"lineas":["36","Ci3","N7"]},"1246":{"nombre":"P. Echegaray Y Caballero / Puente De Piedra","lat":41.656049,"lon":-0.875587,"lineas":["29"]},"1247":{"nombre":"Pso. Echegaray Y Caballero / Puente De Santiago","lat":41.657828,"lon":-0.880893,"lineas":["29","36"]},"1248":{"nombre":"P. De La Mina N.º 15","lat":41.648604,"lon":-0.877218,"lineas":["30"]},"1249":{"nombre":"P. Pamplona N.º 15 / Puerta Del Carmen","lat":41.649127,"lon":-0.887405,"lineas":["25"]},"3001":{"nombre":"P. Pamplona / Almagro","lat":41.64892,"lon":-0.887274,"lineas":["22","23","35"]},"3003":{"nombre":"Av. José Atarés / Tv Aragón","lat":41.661201,"lon":-0.883464,"lineas":["50","Ci4"]},"3007":{"nombre":"Av. César Augusto N.º 27 / Mercado Central","lat":41.653297,"lon":-0.884532,"lineas":["34"]},"3008":{"nombre":"Av. César Augusto N.º 3 / Puerta Del Carmen","lat":41.650326,"lon":-0.887208,"lineas":["32","33","34","52","N3"]},"3009":{"nombre":"Marqués De La Cadena / Campo De Fútbol","lat":41.66537,"lon":-0.86799,"lineas":["60","Ci2"]},"3010":{"nombre":"Av. Salvador Allende / Juslibol","lat":41.671228,"lon":-0.876769,"lineas":["29","N7"]},"3011":{"nombre":"Pablo Ruiz Picasso N.º 8","lat":41.673203,"lon":-0.884993,"lineas":["44","50"]},"3012":{"nombre":"Av. Salvador Allende N.º 33","lat":41.670638,"lon":-0.877018,"lineas":["29"]},"3013":{"nombre":"Marqués De La Cadena / C.D.M. La Jota","lat":41.65778,"lon":-0.861195,"lineas":["44","Ci1"]},"3015":{"nombre":"Av. Compromiso De Caspe N.º 26","lat":41.645786,"lon":-0.868097,"lineas":["22","30","Ci4","N5"]},"3016":{"nombre":"Doctor Iranzo N.º 15 / Belchite","lat":41.642826,"lon":-0.86484,"lineas":["44"]},"3017":{"nombre":"Miguel Servet N.º 174","lat":41.638788,"lon":-0.865506,"lineas":["38","N6"]},"3018":{"nombre":"Av. Cesáreo Alierta / 3er Cinturón","lat":41.635124,"lon":-0.863643,"lineas":["25","38","N6"]},"3019":{"nombre":"María De Aragón / Tomás Higuera","lat":41.643306,"lon":-0.862374,"lineas":["44"]},"3020":{"nombre":"Salvador Minguijón / Amistad","lat":41.647043,"lon":-0.861676,"lineas":["30","44","Ci4","N5"]},"3021":{"nombre":"Marqués De La Cadena / C.D.M. La Jota","lat":41.657875,"lon":-0.86088,"lineas":["44","Ci2"]},"3022":{"nombre":"Marqués De La Cadena N.º 40","lat":41.660677,"lon":-0.863786,"lineas":["21","Ci2"]},"3023":{"nombre":"Av. San Juan De La Peña N.º 37","lat":41.665283,"lon":-0.87194,"lineas":["35","36","N2"]},"3026":{"nombre":"Jorge Cocci Fte N.º 1","lat":41.648739,"lon":-0.870783,"lineas":["22","30","N5"]},"3027":{"nombre":"Camino De Las Torres N.º 24","lat":41.645497,"lon":-0.876505,"lineas":["Ci1"]},"3028":{"nombre":"Av. Cesáreo Alierta N.º 36","lat":41.643539,"lon":-0.876797,"lineas":["25","51","N6"]},"3029":{"nombre":"Av. De San José N.º 69","lat":41.641579,"lon":-0.873231,"lineas":["39","40","Ci4","N6"]},"3030":{"nombre":"Av. De San José N.º 7","lat":41.645467,"lon":-0.872343,"lineas":["39","40","Ci4","N6"]},"3031":{"nombre":"Jorge Cocci N.º 3","lat":41.64879,"lon":-0.870605,"lineas":["22"]},"3032":{"nombre":"Asalto / Edificio Trovador","lat":41.651185,"lon":-0.869816,"lineas":["22"]},"3033":{"nombre":"Marqués De La Cadena / Chimenea","lat":41.665084,"lon":-0.867995,"lineas":["60","Ci1"]},"3035":{"nombre":"Plaza Europa","lat":41.659374,"lon":-0.892964,"lineas":["23","36"]},"3036":{"nombre":"Av. De Madrid / Aljafería","lat":41.655937,"lon":-0.89487,"lineas":["21","32","33","51","52","N3"]},"3037":{"nombre":"Av. De Madrid N.º 58","lat":41.653599,"lon":-0.904101,"lineas":["21","32","33","Ci3","N3"]},"3038":{"nombre":"P. Calanda N.º 50","lat":41.650756,"lon":-0.903227,"lineas":["Ci4"]},"3040":{"nombre":"Tomás Bretón / Av. De Valencia","lat":41.645735,"lon":-0.897921,"lineas":["22","Ci3"]},"3042":{"nombre":"Rioja / Parque Castillo Palomar","lat":41.654394,"lon":-0.909807,"lineas":["36","42","Ci2","Ci4"]},"3044":{"nombre":"Vía Hispanidad / Brea De Aragón","lat":41.651999,"lon":-0.91925,"lineas":["22"]},"3045":{"nombre":"Vía Hispanidad / Miguel Labordeta","lat":41.654565,"lon":-0.920251,"lineas":["22"]},"3047":{"nombre":"Rioja N.º 22","lat":41.653958,"lon":-0.909747,"lineas":["36","42","Ci1","Ci3"]},"3048":{"nombre":"Vía Univérsitas / Parque De Delicias","lat":41.648547,"lon":-0.908819,"lineas":["42","Ci2"]},"3049":{"nombre":"Duquesa Villahermosa / Parque De Delicias","lat":41.645518,"lon":-0.911009,"lineas":["38","N6"]},"3050":{"nombre":"Vía Hispanidad N.º 59","lat":41.641678,"lon":-0.915196,"lineas":["22","53"]},"3051":{"nombre":"Vía Hispanidad N.º 56","lat":41.641829,"lon":-0.914945,"lineas":["22","53"]},"3052":{"nombre":"Duquesa Villahermosa N.º 129","lat":41.645389,"lon":-0.91058,"lineas":["38","N6"]},"3053":{"nombre":"Vía Univérsitas N.º 44","lat":41.648559,"lon":-0.908643,"lineas":["42","Ci1"]},"3055":{"nombre":"Pablo Ruiz Picasso N.º 60","lat":41.672487,"lon":-0.89421,"lineas":["Ci2"]},"3056":{"nombre":"Pablo Ruiz Picasso N.º 9","lat":41.672922,"lon":-0.884878,"lineas":["44","50"]},"3058":{"nombre":"Pablo Ruiz Picasso Fte. Policía","lat":41.672029,"lon":-0.895182,"lineas":["Ci1"]},"3059":{"nombre":"Valle De Broto / Kasán","lat":41.666601,"lon":-0.882825,"lineas":["60","Ci2"]},"3060":{"nombre":"María Zambrano / León Felipe","lat":41.667986,"lon":-0.887367,"lineas":["23","50","Ci2","N2"]},"3062":{"nombre":"G. Gómez Avellaneda N.º 47","lat":41.6702,"lon":-0.890708,"lineas":["43","50","Ci1"]},"3063":{"nombre":"G. Gómez Avellaneda / Rosalía De Castro","lat":41.667778,"lon":-0.888673,"lineas":["23","50","Ci1"]},"3064":{"nombre":"Valle De Broto / Kasán","lat":41.665885,"lon":-0.884358,"lineas":["50","60","Ci1"]},"3071":{"nombre":"Av. De Madrid / Aljafería","lat":41.655573,"lon":-0.895794,"lineas":["21","31","52","N3"]},"3073":{"nombre":"Estación Delicias / Acceso Llegadas","lat":41.659587,"lon":-0.913962,"lineas":["34","51","Ci1"]},"3075":{"nombre":"Plaza Europa","lat":41.659028,"lon":-0.891707,"lineas":["23","42","N2"]},"3076":{"nombre":"María Zambrano N.º 32 / Centro Comercial","lat":41.671247,"lon":-0.889371,"lineas":["43","50","Ci2","N2"]},"3077":{"nombre":"Avenida Pablo Gargallo / Berna","lat":41.662469,"lon":-0.906075,"lineas":["34","Ci3"]},"3501":{"nombre":"Valle De Broto N.º 9","lat":41.666448,"lon":-0.872701,"lineas":["36","60","Ci1"]},"3502":{"nombre":"Av. San Juan De La Peña N.º 94","lat":41.667978,"lon":-0.871317,"lineas":["35","36"]},"3503":{"nombre":"Av. San Juan De La Peña / Cno. Los Molinos","lat":41.672964,"lon":-0.871129,"lineas":["35"]},"3504":{"nombre":"Av. San Juan De La Peña / Av. Alcalde Caballero","lat":41.676991,"lon":-0.870988,"lineas":["35"]},"3507":{"nombre":"Av.  Las Majas De Goya N.º 15","lat":41.686694,"lon":-0.876336,"lineas":["35","N2"]},"3508":{"nombre":"Av. Academia General Militar N.º 7","lat":41.678782,"lon":-0.871229,"lineas":["29","35","N2"]},"3509":{"nombre":"Av. San Juan De La Peña N.º 181","lat":41.676509,"lon":-0.871291,"lineas":["35","N2"]},"3510":{"nombre":"Av. San Juan De La Peña / J.L. Lacruz Berdejo","lat":41.672337,"lon":-0.871469,"lineas":["35","36","N2"]},"3511":{"nombre":"Av. San Juan De La Peña / C.S. Picarral","lat":41.667881,"lon":-0.871652,"lineas":["35","36","N2"]},"3512":{"nombre":"Valle De Broto / Av. San Juan De La Peña","lat":41.66665,"lon":-0.872467,"lineas":["60","Ci2"]},"3513":{"nombre":"Av. De Cataluña N.º 98","lat":41.662772,"lon":-0.863368,"lineas":["28","32","50","60"]},"3514":{"nombre":"Av. De Cataluña N.º 152 / Cme Grande Covián","lat":41.664393,"lon":-0.859414,"lineas":["28","32","44","60","N1"]},"3515":{"nombre":"Av. De Cataluña / Gasolinera","lat":41.668043,"lon":-0.850703,"lineas":["28","32","60","N1","N7"]},"3516":{"nombre":"Av. De Cataluña / Río Martín","lat":41.669773,"lon":-0.846543,"lineas":["28","32","60","N1","N7"]},"3517":{"nombre":"Av. Santa Isabel N.º 20 / Av. De La Industria","lat":41.66959,"lon":-0.839086,"lineas":["32","60","N1"]},"3518":{"nombre":"Av. Santa Isabel N.º 82 / Plaza","lat":41.666965,"lon":-0.831919,"lineas":["32","60","N1"]},"3519":{"nombre":"Av. Real Zaragoza Fte. N.º 63","lat":41.666796,"lon":-0.82418,"lineas":["32","60","N1"]},"3520":{"nombre":"Av. Santa Isabel N.º 97 / Plaza","lat":41.667126,"lon":-0.832285,"lineas":["32","60","N1"]},"3521":{"nombre":"Av. Santa Isabel N.º 27","lat":41.668872,"lon":-0.837671,"lineas":["32","60","N1"]},"3522":{"nombre":"Av. De Cataluña N.º 289 / Castillo Peracense","lat":41.669979,"lon":-0.84654,"lineas":["28","32","60","N1","N7"]},"3523":{"nombre":"Av. De Cataluña N.º 225 / Gasolinera","lat":41.667914,"lon":-0.851627,"lineas":["28","32","60","N1","N7"]},"3524":{"nombre":"Av. Puente Del Pilar N.º 3 / Puente De Hierro","lat":41.657068,"lon":-0.869946,"lineas":["21","32"]},"3525":{"nombre":"Av. Puente Del Pilar N.º 8 / Puente De Hierro","lat":41.657083,"lon":-0.869603,"lineas":["21","28","32","35","39","N1"]},"3526":{"nombre":"Camino Del Pilón / Pascual Lorenz","lat":41.658514,"lon":-0.929385,"lineas":["52"]},"3527":{"nombre":"Camino Del Pilón / Lagos De Coronas","lat":41.658761,"lon":-0.932502,"lineas":["52"]},"3529":{"nombre":"Lagos De Coronas N.º 14 / Ibón De Astún","lat":41.657228,"lon":-0.933683,"lineas":["21","53","N3"]},"3530":{"nombre":"Lagos De Coronas / Ibón De Escalar","lat":41.652358,"lon":-0.933788,"lineas":["21","53","N3"]},"3531":{"nombre":"Alfred Nobel N.º 5","lat":41.651723,"lon":-0.921223,"lineas":["21","53","N3"]},"3532":{"nombre":"Antonio Leyva N.º 68 / Colegio","lat":41.651576,"lon":-0.927257,"lineas":["21","53","N3"]},"3535":{"nombre":"Tulipán N.º 79","lat":41.638202,"lon":-0.933552,"lineas":["36"]},"3537":{"nombre":"Aldebarán N.º 60","lat":41.641655,"lon":-0.934665,"lineas":["36","38"]},"3539":{"nombre":"Vía Láctea / Torre Pajaritos","lat":41.63767,"lon":-0.928099,"lineas":["36","38"]},"3542":{"nombre":"Marqués De La Cadena / Av. De La Jota","lat":41.66016,"lon":-0.863762,"lineas":["21","44","Ci1"]},"8000":{"nombre":"Instalaciones Az","lat":41.632617,"lon":-0.857922,"lineas":["38"]},"1222":{"nombre":"Catedral De Santiago","lat":41.6282,"lon":-0.964207,"lineas":["59"]},"1252":{"nombre":"Av. José Atarés / Clara Campoamor","lat":41.667201,"lon":-0.895118,"lineas":["23"]},"1253":{"nombre":"Av. José Atarés / Parque Del Respeto","lat":41.671082,"lon":-0.896837,"lineas":["23"]},"1254":{"nombre":"Av. José Atarés / Ciudad De La Justicia","lat":41.670211,"lon":-0.897044,"lineas":["23"]},"1255":{"nombre":"Av. José Atarés / Juzgados","lat":41.667769,"lon":-0.895971,"lineas":["23"]},"1256":{"nombre":"Av.Tiziano / Paolo Veronese","lat":41.616956,"lon":-0.875712,"lineas":["31","C4"]},"1257":{"nombre":"Av. Policía Local / Léon De Oro","lat":41.616155,"lon":-0.876082,"lineas":["31","C4"]},"1263":{"nombre":"P. De La Mina / Colegio","lat":41.647163,"lon":-0.878501,"lineas":["40"]},"1258":{"nombre":"P. De La Mina / Centro De Mayores","lat":41.648897,"lon":-0.876714,"lineas":["40"]},"1260":{"nombre":"Estación Miraflores","lat":41.634462,"lon":-0.868917,"lineas":["44"]},"1259":{"nombre":"Camino De Cabaldós / Parque La Granja","lat":41.636896,"lon":-0.869104,"lineas":["44"]},"1265":{"nombre":"Valle De Broto / Valle De Oza","lat":41.666472,"lon":-0.875406,"lineas":["50"]},"1267":{"nombre":"Av. Canal De Izas / Av De Los Cañones","lat":41.622139,"lon":-0.951732,"lineas":["59"]},"1268":{"nombre":"Peine Del Viento / Peña Telera","lat":41.623562,"lon":-0.948952,"lineas":["59"]},"1269":{"nombre":"La Diligencia N.º 56","lat":41.623177,"lon":-0.936103,"lineas":["59"]},"1270":{"nombre":"Av. Cañones De Zaragoza / Refugio De Góriz","lat":41.623099,"lon":-0.955023,"lineas":["59"]},"1271":{"nombre":"Av. Casablanca / Parque El Libro De La Selva","lat":41.621586,"lon":-0.935675,"lineas":["59"]},"1272":{"nombre":"Peine Del Viento / Faja De Las Flores","lat":41.622459,"lon":-0.945849,"lineas":["59"]},"1273":{"nombre":"Av. 21 De Junio De 2009 / Av Patio De Los Naranjos","lat":41.62615,"lon":-0.957317,"lineas":["N4"]},"1274":{"nombre":"Hernán Cortés N.º 10","lat":41.6492,"lon":-0.888682,"lineas":["41","N4","N6"]},"1275":{"nombre":"Melilla","lat":41.632266,"lon":-0.875686,"lineas":["40"]},"1276":{"nombre":"Diputados / Aljafería","lat":41.655996,"lon":-0.89545,"lineas":["36"]},"1277":{"nombre":"Pso. De Los Olvidados 3","lat":41.622479,"lon":-0.918484,"lineas":["55"]},"1278":{"nombre":"Plaza Mozart / Parque De La Esperanza","lat":41.661738,"lon":-0.865185,"lineas":["60"]},"1280":{"nombre":"Catedral De Santiago / Fuente De Neptuno","lat":41.624273,"lon":-0.967416,"lineas":["59"]},"1281":{"nombre":"Fuente De Neptuno / Lonja De La Seda","lat":41.62129,"lon":-0.961637,"lineas":["59"]},"1282":{"nombre":"Zaragoza / Camino Viejo Alfocéa","lat":41.687745,"lon":-0.889976,"lineas":["43"]},"9951":{"nombre":"Av. De Navarra (C.M.E Inocencio Jimenez / Rioja)","lat":41.655759,"lon":-0.909827,"lineas":["52"]},"1284":{"nombre":"Antonio Leyva / C.S Oliver","lat":41.651484,"lon":-0.93017,"lineas":["21","53","N3"]},"1285":{"nombre":"Asalto / Centro De Historias","lat":41.65077,"lon":-0.870079,"lineas":["22"]},"1286":{"nombre":"Av. Manuel Rodríguez Ayuso / Supermercado","lat":41.648602,"lon":-0.920586,"lineas":["36"]},"1287":{"nombre":"Av. Del Cierzo / Av: Cañones De Zaragoza","lat":41.624048,"lon":-0.957537,"lineas":["59"]},"1288":{"nombre":"Valle De Oza 2","lat":41.664967,"lon":-0.87507,"lineas":["36"]},"1289":{"nombre":"Valle De Zuriza / Centro Cívico","lat":41.660885,"lon":-0.87112,"lineas":["50"]},"1290":{"nombre":"Los Siete Samuráis / Colegio","lat":41.62659,"lon":-0.933281,"lineas":["56"]},"1291":{"nombre":"P. De Los Plátanos Nº.78","lat":41.603866,"lon":-0.82371,"lineas":["25","N6"]},"1292":{"nombre":"Cesáreo Alierta Nº. 83","lat":41.639339,"lon":-0.871294,"lineas":["25","51","N6"]},"1293":{"nombre":"Coso N.º 80","lat":41.651318,"lon":-0.878616,"lineas":["29"]},"1294":{"nombre":"Ibón De Astún / Ibón De Catieras","lat":41.657011,"lon":-0.934637,"lineas":["21"]},"1295":{"nombre":"Lagos De Barbarisa / Ibón De Catieras","lat":41.658444,"lon":-0.936046,"lineas":["21"]},"1296":{"nombre":"Enriqueta Castejón 20","lat":41.65566,"lon":-0.861509,"lineas":["21"]},"1297":{"nombre":"Cosuenda / Paseo De Longares","lat":41.656406,"lon":-0.863253,"lineas":["21"]},"1298":{"nombre":"Av. José Atarés / CDM S XXI","lat":41.67514,"lon":-0.898077,"lineas":["23"]},"1299":{"nombre":"Av. José Atarés / Noria Siria","lat":41.674833,"lon":-0.898349,"lineas":["23"]},"1300":{"nombre":"Café Florián / Vaporetto","lat":41.622028,"lon":-0.872799,"lineas":["23"]},"1301":{"nombre":"Av. De Los Estudiantes / C. Pepe Garcés","lat":41.671427,"lon":-0.828631,"lineas":["60"]},"1302":{"nombre":"Av. De Los Estudiantes / Colegio","lat":41.669873,"lon":-0.823342,"lineas":["60"]},"1304":{"nombre":"Av. De Los Estudiantes Fte. Colegio","lat":41.670168,"lon":-0.823865,"lineas":["60"]},"1305":{"nombre":"Av. Estudiantes Fte C. Pepe Garcés","lat":41.671736,"lon":-0.828917,"lineas":["60"]},"1303":{"nombre":"Valle De Broto / Intercambiador","lat":41.666454,"lon":-0.886749,"lineas":["60"]},"1306":{"nombre":"Orquídea","lat":41.643534,"lon":-0.92838,"lineas":["36","N3"]},"1307":{"nombre":"Av. Navarra Nº. 94","lat":41.657354,"lon":-0.913697,"lineas":["Ci3"]},"1308":{"nombre":"Paseo Echegaray / C.D.M. Tenerías","lat":41.653949,"lon":-0.870689,"lineas":["Ci3"]},"1309":{"nombre":"Paseo Echegaray / Jerónimo Vicens","lat":41.652309,"lon":-0.865678,"lineas":["Ci3"]},"1310":{"nombre":"Paseo De La Ribera / Azud Del Ebro","lat":41.652853,"lon":-0.856793,"lineas":["Ci4"]},"1311":{"nombre":"Paseo De La Ribera / Balbino Orensanz","lat":41.653837,"lon":-0.86042,"lineas":["Ci4"]},"1312":{"nombre":"Paseo De La Ribera / Cosuenda","lat":41.655274,"lon":-0.866604,"lineas":["Ci4"]},"1313":{"nombre":"Paseo De La Ribera / Puente Del Pilar","lat":41.656837,"lon":-0.870646,"lineas":["Ci4"]},"1314":{"nombre":"Av. José Atarés / V. Broto","lat":41.662275,"lon":-0.887943,"lineas":["Ci4"]},"1315":{"nombre":"Biel / Dalia","lat":41.642263,"lon":-0.925448,"lineas":["38"]},"1316":{"nombre":"Hortensia / Biel","lat":41.640996,"lon":-0.925723,"lineas":["38"]},"1317":{"nombre":"Hortensia","lat":41.642146,"lon":-0.928912,"lineas":["38"]},"1318":{"nombre":"Dalia / Biel","lat":41.642726,"lon":-0.924557,"lineas":["38"]},"1319":{"nombre":"Jarque Moncayo / Escuela Pignatelli","lat":41.643286,"lon":-0.922653,"lineas":["38"]},"1320":{"nombre":"Av. Expo 2008 / Etopía","lat":41.661088,"lon":-0.908172,"lineas":["34","Ci1","Ci3"]}}}